Date [UTC], Time [UTC], Illuminance [lux], Temperature [°C], Humidity [%], CO2 [ppm], TVOC [ppb], Latitude [°], Longitude [°], Satellites [-], Speed [m/s], Altitude [m], Roll [°], Pitch [°], Heading [°], Wind speed [m/s], Wind angle [°], Wind temp. [°C]
2023-03-30, 11:39:55.177, 516.36, 15.47, 50.31, 400, 3089, 46.52101898, 6.56327200, 9, 0.01, 436.6, 0.5, -1.0, 1.6, 0.4, 55, 16
2023-03-30, 11:39:56.281, 525.99, 15.48, 50.29, 400, 3113, 46.52101898, 6.56327200, 9, 0.09, 436.7, 0.4, -1.1, 1.5, 0.3, 71, 16
2023-03-30, 11:39:57.386, 527.46, 15.44, 50.30, 400, 3075, 46.52101898, 6.56327009, 9, 0.07, 436.7, 0.6, -1.0, 2.0, 0.5, 69, 16
2023-03-30, 11:39:58.493, 531.54, 15.49, 50.26, 400, 3055, 46.52101898, 6.56326818, 9, 0.08, 436.7, 0.4, -1.0, 2.1, 0.5, 82, 16
2023-03-30, 11:39:59.598, 528.93, 15.48, 50.29, 400, 3037, 46.52103043, 6.56327009, 9, 0.06, 436.7, 0.5, -1.1, 2.1, 0.4, 81, 16
2023-03-30, 11:40:00.705, 530.40, 15.47, 50.23, 400, 3057, 46.52103043, 6.56326675, 9, 0.20, 436.7, 0.5, -1.2, 1.8, 0.5, 77, 16
2023-03-30, 11:40:01.810, 534.48, 15.47, 50.29, 400, 3045, 46.52103043, 6.56326485, 9, 0.06, 436.8, 0.4, -1.1, 2.3, 0.5, 76, 16
2023-03-30, 11:40:02.916, 531.87, 15.47, 50.23, 400, 3075, 46.52103043, 6.56326485, 9, 0.04, 436.8, 0.5, -1.0, 1.9, 0.4, 63, 16
2023-03-30, 11:40:04.024, 540.03, 15.48, 50.27, 400, 3043, 46.52103043, 6.56326294, 9, 0.04, 436.8, 0.6, -1.0, 1.8, 0.4, 89, 16
2023-03-30, 11:40:05.130, 537.42, 15.48, 50.25, 400, 3010, 46.52103043, 6.56326294, 9, 0.22, 436.8, 0.6, -1.0, 1.8, 0.4, 89, 16
2023-03-30, 11:40:06.237, 538.89, 15.48, 50.21, 400, 2994, 46.52103043, 6.56326294, 9, 0.40, 436.9, 0.4, -0.9, 1.9, 0.3, 80, 16
2023-03-30, 11:40:07.342, 542.97, 15.47, 50.22, 400, 2980, 46.52101898, 6.56326294, 9, 0.17, 436.9, 0.6, -1.0, 1.9, 0.5, 63, 16
2023-03-30, 11:40:08.449, 551.13, 15.47, 50.22, 400, 2998, 46.52101898, 6.56326199, 9, 0.13, 437.0, 0.4, -1.1, 1.8, 0.7, 69, 16
2023-03-30, 11:40:09.553, 548.52, 15.48, 50.24, 400, 2992, 46.52101135, 6.56326199, 9, 0.16, 437.0, 0.4, -1.3, 2.0, 0.5, 44, 16
2023-03-30, 11:40:10.659, 549.98, 15.48, 50.20, 400, 2962, 46.52101135, 6.56326008, 9, 0.11, 437.0, 0.5, -1.0, 1.6, 0.5, 28, 16
2023-03-30, 11:40:11.765, 558.14, 15.49, 50.17, 400, 2958, 46.52101135, 6.56326199, 9, 0.02, 437.1, 0.3, -1.1, 2.2, 0.9, 38, 16
2023-03-30, 11:40:12.869, 555.53, 15.48, 50.16, 400, 3004, 46.52101135, 6.56326199, 9, 0.05, 437.1, 0.5, -1.1, 1.8, 1.2, 54, 16
2023-03-30, 11:40:13.975, 563.69, 15.48, 50.17, 400, 3047, 46.52101135, 6.56326199, 9, 0.03, 437.1, 0.5, -1.1, 2.2, 1.0, 17, 16
2023-03-30, 11:40:15.084, 561.08, 15.48, 50.17, 400, 2970, 46.52101135, 6.56326199, 9, 0.31, 437.1, 0.5, -1.4, 2.0, 0.8, 9, 16
2023-03-30, 11:40:16.189, 562.55, 15.48, 50.16, 400, 2920, 46.52100372, 6.56325674, 9, 0.62, 437.1, 0.5, -1.2, 2.1, 0.6, 300, 16
2023-03-30, 11:40:17.295, 566.63, 15.48, 50.15, 400, 2920, 46.52100372, 6.56325769, 9, 0.08, 437.2, 0.4, -1.2, 1.6, 0.7, 289, 16
2023-03-30, 11:40:18.402, 568.10, 15.47, 50.12, 400, 2944, 46.52100372, 6.56325769, 9, 0.12, 437.2, 0.5, -1.2, 2.5, 0.7, 279, 16
2023-03-30, 11:40:19.509, 572.18, 15.47, 50.18, 400, 2958, 46.52100372, 6.56325483, 9, 0.13, 437.3, 0.4, -1.0, 2.1, 0.8, 331, 16
2023-03-30, 11:40:20.616, 573.65, 15.45, 50.14, 400, 2930, 46.52100372, 6.56325388, 9, 0.15, 437.3, 0.7, -1.3, 1.7, 0.6, 325, 16
2023-03-30, 11:40:21.721, 577.73, 15.47, 50.13, 400, 2954, 46.52100372, 6.56325483, 9, 0.08, 437.3, 0.6, -0.9, 2.1, 0.7, 5, 16
2023-03-30, 11:40:22.826, 579.20, 15.47, 50.14, 400, 2996, 46.52100372, 6.56325483, 9, 0.23, 437.3, 0.5, -1.3, 2.0, 0.7, 0, 16
2023-03-30, 11:40:23.932, 576.59, 15.47, 50.16, 400, 2938, 46.52100372, 6.56325150, 9, 0.10, 437.3, 0.4, -1.2, 1.7, 0.9, 12, 16
2023-03-30, 11:40:25.035, 584.75, 15.47, 50.09, 400, 2930, 46.52100372, 6.56324959, 9, 0.09, 437.4, 0.5, -1.1, 1.5, 1.1, 17, 16
2023-03-30, 11:40:26.139, 586.21, 15.44, 50.10, 400, 2924, 46.52100372, 6.56324863, 9, 0.12, 437.4, 0.6, -1.1, 2.1, 0.7, 6, 16
2023-03-30, 11:40:27.242, 590.29, 15.47, 50.14, 400, 2902, 46.52101135, 6.56324863, 9, 0.18, 437.5, 0.5, -1.1, 1.5, 0.5, 57, 16
2023-03-30, 11:40:28.346, 587.68, 15.47, 50.16, 400, 2918, 46.52101135, 6.56324863, 9, 0.24, 437.5, 0.4, -1.1, 1.7, 1.1, 61, 16
2023-03-30, 11:40:29.449, 595.84, 15.47, 50.13, 400, 2920, 46.52101135, 6.56324673, 8, 0.10, 437.5, 0.4, -1.1, 1.9, 0.8, 18, 16
2023-03-30, 11:40:30.553, 593.23, 15.49, 50.16, 400, 2912, 46.52101135, 6.56324387, 8, 0.18, 437.5, 0.6, -1.3, 1.9, 0.9, 30, 16
2023-03-30, 11:40:31.690, 597.31, 15.48, 50.13, 400, 2902, 46.52100372, 6.56324148, 8, 0.04, 437.5, 0.4, -1.2, 1.8, 0.5, 48, 16
2023-03-30, 11:40:32.792, 598.78, 15.47, 50.07, 400, 2851, 46.52100372, 6.56324148, 8, 0.21, 437.5, 0.5, -1.2, 2.3, 1.1, 79, 16
2023-03-30, 11:40:33.895, 602.86, 15.47, 50.07, 400, 2902, 46.52100372, 6.56324148, 8, 0.04, 437.5, 0.5, -1.2, 2.1, 0.5, 96, 16
2023-03-30, 11:40:34.999, 604.33, 15.47, 50.08, 400, 2904, 46.52100372, 6.56324387, 8, 0.03, 437.5, 0.6, -1.1, 1.8, 0.3, 200, 16
2023-03-30, 11:40:36.105, 608.41, 15.48, 50.08, 400, 2899, 46.52100372, 6.56324387, 8, 0.04, 437.5, 0.4, -1.1, 1.8, 0.3, 114, 16
2023-03-30, 11:40:37.213, 605.80, 15.45, 50.12, 400, 2930, 46.52100372, 6.56324148, 8, 0.11, 437.6, 0.5, -1.1, 2.3, 0.4, 252, 16
2023-03-30, 11:40:38.319, 609.88, 15.48, 50.12, 400, 2920, 46.52100372, 6.56323957, 8, 0.14, 437.6, 0.4, -1.0, 1.6, 1.0, 255, 16
2023-03-30, 11:40:39.425, 611.35, 15.49, 50.11, 400, 2867, 46.52100372, 6.56323957, 8, 0.30, 437.6, 0.5, -1.4, 1.9, 0.8, 232, 16
2023-03-30, 11:40:40.532, 615.43, 15.48, 50.12, 400, 2869, 46.52100372, 6.56323957, 8, 0.33, 437.6, 0.5, -1.1, 1.6, 0.9, 269, 16
2023-03-30, 11:40:41.638, 612.82, 15.48, 50.11, 400, 2867, 46.52101135, 6.56324387, 8, 0.29, 437.6, 0.5, -1.3, 1.6, 0.6, 269, 16
2023-03-30, 11:40:42.743, 616.90, 15.45, 50.09, 400, 2869, 46.52101135, 6.56324673, 8, 0.23, 437.5, 0.5, -1.4, 2.1, 1.0, 269, 16
2023-03-30, 11:40:43.849, 620.98, 15.48, 50.16, 400, 2899, 46.52101135, 6.56324863, 8, 0.12, 437.4, 0.5, -1.4, 1.2, 0.9, 285, 16
2023-03-30, 11:40:44.952, 618.36, 15.47, 50.18, 400, 2902, 46.52101135, 6.56324863, 8, 0.10, 437.4, 0.4, -1.2, 2.4, 1.0, 278, 16
2023-03-30, 11:40:46.061, 622.44, 15.48, 50.13, 400, 2883, 46.52101135, 6.56324863, 8, 0.11, 437.4, 0.6, -1.3, 2.0, 0.7, 291, 16
2023-03-30, 11:40:47.167, 619.83, 15.47, 50.13, 400, 2930, 46.52101135, 6.56324863, 8, 0.06, 437.4, 0.4, -1.2, 1.7, 0.8, 292, 16
2023-03-30, 11:40:48.271, 623.91, 15.47, 50.12, 400, 2926, 46.52101135, 6.56324863, 8, 0.08, 437.4, 0.0, -5.6, 1.9, 0.9, 298, 16
2023-03-30, 11:40:49.377, 627.99, 15.47, 50.16, 400, 2944, 46.52101898, 6.56324863, 9, 0.57, 437.4, 0.5, -1.4, 1.8, 0.9, 285, 16
2023-03-30, 11:41:37.299, 942.48, 15.66, 50.80, 400, 2783, 46.52103806, 6.56326008, 9, 0.01, 435.5, 1.2, -1.1, 355.2, 0.5, 279, 16
2023-03-30, 11:41:38.405, 934.32, 15.62, 50.71, 400, 2835, 46.52103806, 6.56326008, 9, 0.01, 435.5, 1.2, -0.8, 356.1, 0.5, 282, 16
2023-03-30, 11:41:39.510, 932.85, 15.66, 50.80, 400, 2805, 46.52103806, 6.56326008, 9, 0.01, 435.5, 1.6, -1.2, 355.6, 0.3, 252, 16
2023-03-30, 11:41:40.615, 938.40, 15.65, 50.76, 400, 2831, 46.52103806, 6.56326008, 9, 0.01, 435.5, 1.2, -1.1, 356.3, 0.5, 269, 16
2023-03-30, 11:41:41.722, 948.03, 15.66, 50.76, 400, 2829, 46.52104568, 6.56326199, 9, 0.02, 435.2, 1.1, -1.3, 356.2, 0.5, 289, 16
2023-03-30, 11:41:42.829, 953.58, 15.64, 50.80, 400, 2797, 46.52104568, 6.56326294, 9, 0.01, 435.0, 1.2, -1.1, 356.2, 0.5, 289, 16
2023-03-30, 11:41:43.934, 953.58, 15.64, 50.77, 400, 2791, 46.52104568, 6.56326294, 9, 0.01, 434.9, 1.2, -1.1, 356.5, 0.6, 289, 16
2023-03-30, 11:41:45.041, 957.66, 15.64, 50.70, 400, 2823, 46.52104568, 6.56326294, 10, 0.01, 434.8, 1.2, -1.0, 356.4, 0.4, 294, 16
2023-03-30, 11:41:46.145, 961.74, 15.65, 50.68, 400, 2793, 46.52103806, 6.56326294, 9, 0.02, 434.6, 1.2, -1.0, 355.8, 0.1, 107, 16
2023-03-30, 11:41:47.250, 959.13, 15.62, 50.69, 400, 2801, 46.52103806, 6.56326485, 9, 0.01, 434.2, 1.1, -1.0, 356.6, 0.7, 79, 16
2023-03-30, 11:41:48.354, 963.21, 15.65, 50.71, 400, 2762, 46.52103806, 6.56326485, 9, 0.03, 434.1, 1.0, -1.1, 356.4, 1.3, 95, 16
2023-03-30, 11:41:49.456, 960.60, 15.64, 50.66, 400, 2803, 46.52103806, 6.56326485, 9, 0.01, 433.9, 1.2, -1.2, 355.9, 0.6, 63, 16
2023-03-30, 11:41:50.562, 963.21, 15.64, 50.57, 400, 2783, 46.52103806, 6.56326675, 9, 0.01, 433.8, 1.2, -1.4, 356.1, 1.5, 69, 16
2023-03-30, 11:41:51.666, 959.13, 15.64, 50.57, 400, 2700, 46.52103806, 6.56327009, 9, 0.05, 433.6, 1.4, -1.3, 356.4, 1.6, 67, 16
2023-03-30, 11:41:52.768, 955.05, 15.59, 50.54, 400, 2740, 46.52103806, 6.56326818, 9, 0.03, 433.5, 1.1, -1.3, 356.2, 1.0, 49, 16
2023-03-30, 11:41:53.874, 955.05, 15.62, 50.51, 400, 2756, 46.52103806, 6.56326818, 10, 0.05, 433.5, 1.1, -1.1, 356.0, 0.9, 4, 16
2023-03-30, 11:41:54.978, 950.97, 15.62, 50.45, 400, 2744, 46.52103806, 6.56326818, 10, 0.01, 433.5, 1.3, -1.0, 356.4, 0.8, 269, 16
2023-03-30, 11:41:56.084, 957.66, 15.59, 50.46, 400, 2777, 46.52103806, 6.56326818, 10, 0.00, 433.5, 1.2, -1.2, 356.5, 2.1, 269, 16
2023-03-30, 11:41:57.190, 953.58, 15.59, 50.39, 400, 2742, 46.52103806, 6.56326818, 9, 0.05, 433.5, 1.2, -1.2, 355.9, 3.0, 267, 16
2023-03-30, 11:41:58.298, 949.50, 15.57, 50.34, 400, 2718, 46.52103806, 6.56326818, 9, 0.04, 433.5, 1.4, -1.4, 356.3, 2.6, 262, 16
2023-03-30, 11:41:59.404, 952.11, 15.58, 50.37, 400, 2702, 46.52103806, 6.56326818, 9, 0.05, 433.5, 1.2, -1.4, 356.4, 2.1, 263, 16
2023-03-30, 11:42:00.511, 948.03, 15.59, 50.32, 400, 2728, 46.52103806, 6.56326818, 9, 0.03, 433.4, 1.2, -1.2, 356.1, 1.9, 258, 16
2023-03-30, 11:42:01.617, 939.87, 15.58, 50.30, 400, 2718, 46.52103806, 6.56326818, 9, 0.03, 433.4, 1.2, -1.1, 356.7, 1.0, 247, 16
2023-03-30, 11:42:02.722, 939.87, 15.55, 50.32, 400, 2734, 46.52103806, 6.56326818, 9, 0.02, 433.4, 1.1, -1.2, 356.4, 0.3, 252, 16
2023-03-30, 11:42:03.827, 939.87, 15.58, 50.31, 400, 2771, 46.52103806, 6.56326818, 9, 0.01, 433.4, 1.2, -1.2, 355.6, 0.8, 269, 16
2023-03-30, 11:42:04.933, 938.40, 15.57, 50.27, 400, 2764, 46.52103806, 6.56326818, 9, 0.01, 433.4, 1.2, -1.2, 356.1, 2.2, 269, 16
2023-03-30, 11:42:06.039, 934.32, 15.55, 50.31, 400, 2742, 46.52103806, 6.56326818, 10, 0.01, 433.4, 1.3, -1.2, 355.9, 2.2, 273, 16
2023-03-30, 11:42:07.172, 932.85, 15.55, 50.27, 400, 2754, 46.52103806, 6.56327009, 9, 0.01, 433.4, 1.2, -1.3, 356.2, 1.7, 267, 16
2023-03-30, 11:42:08.275, 927.30, 15.57, 50.23, 400, 2762, 46.52103806, 6.56327009, 9, 0.04, 433.4, 1.2, -1.1, 355.8, 1.3, 255, 16
2023-03-30, 11:42:09.377, 912.12, 15.58, 50.28, 400, 2726, 46.52103806, 6.56327009, 9, 0.03, 433.4, 1.1, -1.0, 356.6, 0.8, 274, 16
2023-03-30, 11:42:10.482, 883.24, 15.55, 50.27, 400, 2728, 46.52103806, 6.56327009, 9, 0.05, 433.4, 1.3, -1.5, 355.5, 1.3, 273, 16
2023-03-30, 11:50:40.201, 828.40, 16.09, 50.09, 400, 2023, 46.51976013, 6.56352329, 10, 0.06, 417.1, -2.0, -1.9, 356.0, 0.5, 53, 16
2023-03-30, 11:50:41.307, 840.07, 16.07, 50.10, 400, 2003, 46.51976013, 6.56352329, 10, 0.08, 417.0, -2.0, -1.9, 356.3, 0.6, 17, 16
2023-03-30, 11:50:42.413, 843.74, 16.07, 50.07, 400, 2009, 46.51976776, 6.56351519, 10, 0.22, 416.9, -2.1, -1.9, 356.8, 0.3, 344, 16
2023-03-30, 11:50:43.519, 849.29, 16.09, 50.05, 400, 2061, 46.51976776, 6.56351089, 10, 0.13, 416.8, -1.9, -2.0, 356.4, 0.5, 303, 16
2023-03-30, 11:50:44.627, 854.11, 16.07, 50.01, 400, 2031, 46.51977539, 6.56350708, 10, 0.15, 416.5, -2.1, -2.0, 355.9, 0.3, 317, 16
2023-03-30, 11:50:45.733, 853.54, 16.06, 49.95, 400, 2053, 46.51977539, 6.56350327, 10, 0.10, 416.3, -2.0, -2.0, 356.2, 0.4, 350, 16
2023-03-30, 11:50:46.840, 855.58, 16.03, 49.94, 400, 2037, 46.51978302, 6.56350517, 10, 0.20, 416.2, -2.1, -1.9, 356.4, 0.3, 350, 16
2023-03-30, 11:50:47.945, 857.62, 16.04, 49.94, 400, 2021, 46.51978302, 6.56350517, 10, 0.15, 416.2, -2.0, -2.0, 356.6, 0.0, 44, 16
2023-03-30, 11:50:49.052, 858.35, 16.06, 49.93, 400, 2033, 46.51978302, 6.56350517, 10, 0.08, 416.1, -2.0, -2.1, 356.6, 0.1, 17, 16
2023-03-30, 11:50:50.156, 860.39, 16.04, 49.88, 400, 2059, 46.51978302, 6.56350327, 10, 0.05, 415.9, -1.9, -2.0, 355.9, 0.4, 0, 16
2023-03-30, 11:50:51.262, 861.12, 16.04, 49.89, 400, 2007, 46.51979065, 6.56350327, 10, 0.07, 415.8, -2.0, -2.0, 356.4, 0.2, 17, 16
2023-03-30, 11:50:52.367, 859.82, 16.04, 49.86, 400, 1999, 46.51979065, 6.56350708, 10, 0.20, 415.6, -2.1, -2.1, 356.9, 0.6, 345, 16
2023-03-30, 11:50:53.472, 861.86, 16.04, 49.86, 400, 1991, 46.51979065, 6.56350803, 10, 0.12, 415.5, -2.1, -2.1, 356.2, 0.7, 334, 16
2023-03-30, 11:50:54.575, 863.90, 16.04, 49.84, 400, 2031, 46.51979828, 6.56350994, 10, 0.20, 415.5, -2.0, -1.9, 355.8, 0.8, 348, 16
2023-03-30, 11:50:55.679, 860.55, 16.03, 49.86, 400, 2019, 46.51979828, 6.56351328, 10, 0.09, 415.3, -1.9, -2.1, 356.3, 0.6, 345, 16
2023-03-30, 11:50:56.784, 862.59, 16.04, 49.79, 400, 1964, 46.51979828, 6.56351519, 10, 0.04, 415.1, -2.1, -1.9, 355.4, 1.1, 4, 16
2023-03-30, 11:50:57.891, 862.59, 16.01, 49.80, 400, 2011, 46.51979828, 6.56351614, 10, 0.02, 415.1, -2.0, -2.1, 356.5, 0.9, 8, 16
2023-03-30, 11:50:58.997, 864.63, 16.04, 49.77, 400, 2037, 46.51979828, 6.56351614, 10, 0.03, 415.0, -2.1, -2.0, 356.0, 1.1, 0, 16
2023-03-30, 11:51:00.103, 864.63, 16.01, 49.80, 400, 1979, 46.51979828, 6.56352043, 10, 0.05, 414.8, -2.0, -1.9, 355.9, 0.6, 0, 16
2023-03-30, 11:51:01.211, 861.29, 16.04, 49.79, 400, 1989, 46.51980972, 6.56352139, 10, 0.10, 414.7, -2.0, -2.1, 356.1, 1.4, 329, 16
2023-03-30, 11:51:02.317, 861.29, 16.01, 49.83, 400, 1995, 46.51980972, 6.56352139, 10, 0.16, 414.5, -2.0, -1.9, 355.5, 1.7, 337, 16
2023-03-30, 11:51:03.423, 859.25, 16.01, 49.80, 400, 1979, 46.51980972, 6.56352520, 10, 0.06, 414.3, -2.1, -2.0, 356.6, 1.5, 323, 16
2023-03-30, 11:51:04.528, 861.29, 16.03, 49.79, 400, 1971, 46.51980972, 6.56352329, 10, 0.22, 414.1, -2.1, -2.1, 356.2, 1.0, 341, 16
2023-03-30, 11:51:05.636, 861.29, 16.04, 49.77, 400, 1969, 46.51980972, 6.56352615, 10, 0.11, 413.8, -2.0, -2.1, 356.1, 0.9, 342, 16
2023-03-30, 11:51:06.741, 848.72, 16.01, 49.80, 400, 2005, 46.51980972, 6.56352854, 10, 0.14, 413.7, -2.0, -2.1, 356.7, 1.1, 346, 16
2023-03-30, 11:51:07.847, 838.52, 16.03, 49.83, 400, 1906, 46.51980972, 6.56353140, 10, 0.04, 413.7, -2.2, -2.1, 357.0, 1.1, 345, 16
2023-03-30, 11:51:08.953, 836.32, 16.04, 49.84, 400, 1918, 46.51980972, 6.56353378, 10, 0.05, 413.6, -2.0, -2.2, 356.4, 0.7, 5, 16
2023-03-30, 11:51:10.061, 837.62, 16.01, 49.83, 400, 1950, 46.51980972, 6.56353378, 10, 0.07, 413.6, -2.2, -2.3, 356.2, 0.7, 347, 16
2023-03-30, 11:51:11.167, 853.54, 16.04, 49.86, 400, 1914, 46.51980972, 6.56353664, 10, 0.06, 413.4, -2.2, -2.1, 356.3, 0.7, 24, 16
2023-03-30, 11:51:12.273, 857.04, 16.01, 49.85, 400, 1922, 46.51980972, 6.56353664, 10, 0.10, 413.1, -2.0, -2.2, 355.8, 0.6, 12, 16
2023-03-30, 11:51:13.378, 853.70, 16.01, 49.86, 400, 1942, 46.51981735, 6.56353951, 10, 0.23, 413.0, -2.2, -2.2, 356.6, 0.6, 6, 16
2023-03-30, 11:51:14.485, 857.04, 16.00, 49.87, 400, 1950, 46.51981735, 6.56354141, 10, 0.19, 412.9, -2.0, -2.1, 356.4, 0.7, 6, 16
2023-03-30, 11:51:15.592, 857.04, 16.03, 49.87, 400, 1975, 46.51981735, 6.56353951, 10, 0.20, 412.3, -2.0, -2.0, 356.3, 0.9, 19, 16
2023-03-30, 11:51:16.699, 850.92, 16.01, 49.88, 400, 1894, 46.51980972, 6.56354380, 10, 0.22, 412.2, -2.2, -2.3, 356.2, 1.1, 7, 16
2023-03-30, 11:51:17.805, 846.11, 16.00, 49.87, 400, 1922, 46.51981735, 6.56354475, 10, 0.16, 412.1, -2.2, -2.3, 356.7, 1.0, 357, 16
2023-03-30, 11:51:18.914, 842.60, 16.01, 49.91, 400, 1910, 46.51981735, 6.56354666, 10, 0.17, 412.0, -2.2, -2.2, 356.3, 0.9, 356, 16
2023-03-30, 11:51:20.020, 832.97, 16.00, 49.95, 400, 1892, 46.51981735, 6.56354904, 10, 0.17, 412.0, -2.1, -2.3, 356.6, 0.6, 0, 16
2023-03-30, 11:51:21.126, 822.45, 16.01, 49.92, 400, 1948, 46.51981735, 6.56355000, 10, 0.22, 411.7, -2.1, -2.3, 356.2, 1.1, 333, 16
2023-03-30, 11:51:22.231, 807.84, 16.00, 49.95, 400, 1912, 46.51981735, 6.56355000, 10, 0.21, 411.4, -2.4, -2.5, 356.3, 0.9, 30, 16
2023-03-30, 11:51:58.731, 527.71, 15.98, 49.60, 400, 1896, 46.51970291, 6.56351614, 10, 0.02, 414.1, -0.4, -1.5, 1.9, 1.6, 307, 16
2023-03-30, 11:51:59.831, 681.28, 16.03, 49.63, 400, 1880, 46.51970291, 6.56351614, 10, 0.34, 414.4, -0.6, -1.5, 1.5, 1.5, 298, 16
2023-03-30, 11:52:00.934, 995.44, 16.00, 49.62, 400, 1898, 46.51970291, 6.56351852, 10, 0.28, 414.4, -0.5, -1.7, 1.8, 1.3, 301, 16
2023-03-30, 11:52:02.039, 1010.21, 16.03, 49.60, 400, 1934, 46.51970291, 6.56352043, 10, 0.25, 414.5, -0.4, -1.5, 1.7, 1.0, 291, 16
2023-03-30, 11:52:03.144, 1028.00, 16.04, 49.61, 400, 1934, 46.51970291, 6.56352043, 10, 0.13, 414.6, -0.5, -1.6, 1.9, 1.0, 300, 16
2023-03-30, 11:52:04.246, 1032.08, 16.01, 49.65, 400, 1914, 46.51969528, 6.56351852, 10, 0.11, 414.7, -0.5, -1.5, 1.6, 0.9, 281, 16
2023-03-30, 11:52:05.349, 1030.04, 16.03, 49.65, 400, 1888, 46.51970291, 6.56351614, 10, 0.17, 414.9, -0.5, -1.5, 0.7, 1.1, 310, 16
2023-03-30, 11:52:06.456, 1028.00, 16.00, 49.70, 400, 1898, 46.51969528, 6.56351519, 10, 0.09, 415.1, -0.5, -1.7, 1.9, 1.5, 314, 16
2023-03-30, 11:52:07.562, 1027.26, 16.03, 49.71, 400, 1882, 46.51969528, 6.56351614, 10, 0.11, 415.1, -0.5, -1.5, 0.7, 1.2, 304, 16
2023-03-30, 11:52:08.669, 1026.53, 16.00, 49.67, 400, 1888, 46.51969528, 6.56351089, 10, 0.18, 415.4, -0.6, -1.4, 2.1, 1.6, 317, 16
2023-03-30, 11:52:09.776, 1022.45, 16.01, 49.68, 400, 1916, 46.51969528, 6.56350803, 10, 0.13, 415.5, -0.3, -1.6, 1.1, 1.4, 315, 16
2023-03-30, 11:52:10.883, 1021.71, 16.00, 49.69, 400, 1910, 46.51969528, 6.56350708, 10, 0.15, 415.7, -0.3, -1.5, 1.2, 1.6, 324, 16
2023-03-30, 11:52:11.989, 1018.94, 16.01, 49.69, 400, 1916, 46.51969528, 6.56350517, 10, 0.13, 415.7, -0.4, -1.5, 1.3, 1.6, 314, 16
2023-03-30, 11:52:13.096, 1016.16, 16.00, 49.69, 400, 1878, 46.51968765, 6.56350327, 10, 0.12, 415.8, -0.4, -1.5, 1.4, 1.5, 306, 16
2023-03-30, 11:52:14.202, 1015.43, 16.03, 49.72, 400, 1922, 46.51968765, 6.56349802, 10, 0.16, 415.9, -0.4, -1.4, 1.4, 1.1, 305, 16
2023-03-30, 11:52:15.309, 1012.66, 16.00, 49.74, 400, 1894, 46.51968765, 6.56349707, 10, 0.23, 416.0, -0.3, -1.6, 1.8, 1.2, 294, 16
2023-03-30, 11:52:16.415, 1007.84, 16.03, 49.74, 400, 1916, 46.51968765, 6.56349707, 10, 0.13, 416.1, -0.4, -1.6, 1.4, 1.2, 294, 16
2023-03-30, 11:52:17.521, 1007.11, 15.97, 49.74, 400, 1890, 46.51967621, 6.56349468, 10, 0.09, 416.3, -0.4, -1.5, 1.5, 1.2, 291, 16
2023-03-30, 11:52:18.628, 1004.33, 15.98, 49.75, 400, 1886, 46.51966858, 6.56349182, 10, 0.11, 416.3, -0.5, -1.3, 1.8, 1.1, 301, 16
2023-03-30, 11:52:19.735, 1002.86, 16.01, 49.73, 400, 1900, 46.51966858, 6.56348991, 10, 0.07, 416.3, -0.4, -1.4, 1.5, 1.1, 305, 16
2023-03-30, 11:52:20.840, 1000.09, 16.00, 49.74, 400, 1888, 46.51966858, 6.56348991, 10, 0.13, 416.3, -0.3, -1.5, 1.7, 0.9, 298, 16
2023-03-30, 11:52:21.946, 999.36, 16.01, 49.74, 400, 1912, 46.51966858, 6.56348896, 10, 0.08, 416.3, -0.3, -1.7, 1.5, 0.6, 282, 16
2023-03-30, 11:52:23.055, 994.54, 16.01, 49.77, 400, 1868, 46.51966858, 6.56348896, 10, 0.05, 416.3, -0.4, -1.4, 1.0, 0.8, 269, 16
2023-03-30, 11:52:24.160, 991.77, 16.04, 49.73, 400, 1864, 46.51966858, 6.56348658, 10, 0.14, 416.3, -0.3, -1.4, 1.3, 0.5, 286, 16
2023-03-30, 11:52:25.266, 990.30, 16.04, 49.81, 400, 1882, 46.51966858, 6.56348896, 10, 0.10, 416.3, -0.4, -1.4, 2.3, 0.7, 269, 16
2023-03-30, 11:52:26.372, 987.52, 16.01, 49.76, 400, 1876, 46.51966858, 6.56348991, 10, 0.05, 416.3, -0.4, -1.3, 1.6, 1.3, 297, 16
2023-03-30, 11:52:27.478, 984.75, 16.01, 49.76, 400, 1876, 46.51966858, 6.56348991, 10, 0.14, 416.3, -0.4, -1.5, 1.1, 1.3, 307, 16
2023-03-30, 11:52:28.585, 979.93, 16.01, 49.74, 400, 1884, 46.51966858, 6.56348896, 9, 0.16, 416.3, -0.4, -1.3, 1.2, 1.2, 302, 16
2023-03-30, 11:52:29.690, 977.16, 16.06, 49.72, 400, 1902, 46.51966095, 6.56348896, 9, 0.23, 416.3, -0.5, -1.6, 1.7, 1.0, 295, 16
2023-03-30, 11:52:30.796, 976.43, 16.04, 49.73, 400, 1912, 46.51965332, 6.56348658, 9, 0.25, 416.4, -0.4, -1.4, 1.7, 1.2, 308, 16
2023-03-30, 11:52:31.902, 973.65, 16.03, 49.74, 400, 1920, 46.51964569, 6.56348467, 9, 0.29, 416.5, -0.4, -1.4, 1.2, 1.3, 305, 16
2023-03-30, 11:52:33.006, 970.88, 16.04, 49.79, 400, 1906, 46.51964569, 6.56348467, 10, 0.27, 416.5, -0.5, -1.4, 1.5, 1.1, 305, 16
2023-03-30, 11:52:34.110, 971.45, 16.06, 49.72, 400, 1888, 46.51964569, 6.56348372, 9, 0.19, 416.5, -0.4, -1.4, 2.0, 1.1, 310, 16
2023-03-30, 11:52:35.214, 966.63, 16.03, 49.71, 400, 1880, 46.51963806, 6.56348372, 9, 0.17, 416.5, -0.3, -1.3, 1.5, 1.3, 322, 16
2023-03-30, 11:52:36.317, 963.86, 16.04, 49.71, 400, 1864, 46.51963806, 6.56348372, 9, 0.18, 416.5, -0.3, -1.4, 2.0, 1.3, 322, 16
2023-03-30, 11:52:37.421, 961.08, 16.01, 49.70, 400, 1846, 46.51963806, 6.56348181, 9, 0.36, 416.5, -0.4, -1.2, 1.6, 1.4, 324, 16
2023-03-30, 11:52:38.524, 958.31, 16.00, 49.70, 400, 1870, 46.51963043, 6.56348991, 9, 0.12, 416.7, -0.5, -1.2, 1.7, 1.5, 335, 16
2023-03-30, 11:52:39.626, 953.50, 16.00, 49.66, 400, 1872, 46.51963043, 6.56349182, 9, 0.24, 416.8, -0.4, -1.4, 1.5, 1.5, 333, 16
2023-03-30, 11:52:40.731, 954.07, 16.04, 49.67, 400, 1860, 46.51961899, 6.56349468, 9, 0.22, 417.0, -0.4, -1.6, 0.7, 1.5, 331, 16
2023-03-30, 11:52:41.836, 951.29, 16.01, 49.65, 400, 1827, 46.51961899, 6.56349277, 9, 0.17, 417.0, -0.4, -1.3, 1.7, 1.3, 330, 16
2023-03-30, 11:52:42.944, 948.52, 16.03, 49.61, 400, 1834, 46.51961136, 6.56349182, 9, 0.14, 417.0, -0.3, -1.3, 2.0, 1.2, 337, 16
2023-03-30, 11:52:44.051, 945.74, 16.01, 49.61, 400, 1801, 46.51961136, 6.56349277, 9, 0.14, 417.0, -0.3, -1.3, 1.7, 1.2, 328, 16
2023-03-30, 11:52:45.158, 942.97, 16.01, 49.59, 400, 1743, 46.51960373, 6.56349802, 9, 0.23, 416.9, -0.4, -1.2, 1.6, 0.8, 330, 16
2023-03-30, 11:52:46.263, 940.20, 16.03, 49.56, 400, 1809, 46.51959610, 6.56349993, 9, 0.35, 416.9, -0.4, -1.3, 1.2, 0.9, 339, 16
2023-03-30, 11:52:47.395, 937.42, 16.04, 49.56, 400, 1803, 46.51958847, 6.56349802, 9, 0.47, 417.0, -0.3, -1.3, 2.5, 0.9, 346, 16
2023-03-30, 11:52:48.497, 935.95, 16.04, 49.52, 400, 1773, 46.51957321, 6.56349993, 9, 0.50, 417.0, -0.4, -1.3, 1.4, 0.9, 339, 16
2023-03-30, 11:52:49.603, 933.18, 16.03, 49.51, 400, 1783, 46.51956558, 6.56350708, 9, 0.59, 417.0, -0.4, -1.2, 1.5, 0.9, 331, 16
2023-03-30, 11:52:50.709, 930.40, 16.03, 49.48, 400, 1821, 46.51955414, 6.56350803, 9, 0.28, 416.9, -0.2, -1.2, 1.8, 0.9, 335, 16
2023-03-30, 11:52:51.814, 925.59, 16.04, 49.46, 400, 1775, 46.51955414, 6.56350994, 9, 0.19, 416.9, -0.3, -1.1, 1.5, 1.3, 326, 16
2023-03-30, 11:52:52.920, 922.81, 16.03, 49.42, 400, 1747, 46.51954651, 6.56350803, 9, 0.14, 416.8, -0.4, -1.4, 1.8, 1.6, 321, 16
2023-03-30, 11:52:54.028, 922.08, 16.06, 49.46, 400, 1743, 46.51953888, 6.56350803, 10, 0.15, 416.8, -0.4, -1.1, 1.7, 1.2, 319, 16
2023-03-30, 11:52:55.134, 920.61, 16.04, 49.38, 400, 1789, 46.51953888, 6.56351519, 9, 0.03, 416.7, -0.4, -1.5, 1.7, 1.5, 315, 16
2023-03-30, 11:52:56.238, 915.80, 16.03, 49.46, 400, 1781, 46.51953888, 6.56351614, 9, 0.07, 416.7, -0.4, -1.5, 1.6, 1.3, 305, 16
2023-03-30, 11:52:57.345, 913.02, 16.03, 49.43, 400, 1761, 46.51953888, 6.56352139, 9, 0.09, 416.5, -0.4, -1.4, 2.1, 1.2, 306, 16
2023-03-30, 11:52:58.452, 910.25, 16.03, 49.42, 400, 1805, 46.51952362, 6.56352520, 9, 0.19, 416.4, -0.4, -1.2, 1.7, 1.7, 291, 16
2023-03-30, 11:52:59.559, 905.43, 16.03, 49.47, 400, 1811, 46.51950836, 6.56352520, 9, 0.30, 416.3, -0.6, -1.4, 1.1, 1.6, 301, 16
2023-03-30, 11:53:00.664, 906.00, 16.03, 49.51, 400, 1777, 46.51950836, 6.56353045, 9, 0.02, 416.2, -0.4, -1.3, 1.6, 1.2, 308, 16
2023-03-30, 11:53:01.770, 903.23, 16.00, 49.43, 400, 1803, 46.51950836, 6.56353140, 9, 0.01, 416.2, -0.5, -1.4, 2.0, 1.3, 289, 16
2023-03-30, 11:53:02.877, 900.46, 16.03, 49.50, 400, 1793, 46.51950836, 6.56353140, 10, 0.06, 416.1, -0.4, -1.5, 1.5, 1.6, 312, 16
2023-03-30, 11:53:03.983, 895.64, 16.00, 49.47, 400, 1759, 46.51950836, 6.56353378, 10, 0.02, 416.1, -0.4, -1.5, 1.4, 1.9, 323, 16
2023-03-30, 11:53:05.089, 896.21, 16.00, 49.50, 400, 1777, 46.51950836, 6.56353474, 10, 0.05, 416.1, -0.4, -1.3, 1.4, 1.6, 321, 16
2023-03-30, 11:53:06.198, 891.40, 16.03, 49.55, 400, 1775, 46.51949692, 6.56353474, 10, 0.02, 416.0, -0.6, -1.3, 1.6, 1.2, 323, 16
2023-03-30, 11:53:07.300, 885.85, 16.06, 49.55, 400, 1795, 46.51949692, 6.56353664, 10, 0.08, 415.9, -0.5, -1.4, 1.8, 1.3, 342, 16
2023-03-30, 11:53:08.404, 874.18, 16.03, 49.55, 400, 1825, 46.51949692, 6.56353951, 10, 0.24, 415.8, -0.4, -1.5, 1.5, 1.2, 335, 16
2023-03-30, 11:53:09.508, 778.14, 16.03, 49.57, 400, 1801, 46.51949692, 6.56354141, 10, 0.07, 415.7, -0.5, -1.3, 1.4, 1.1, 330, 16
2023-03-30, 11:53:10.613, 328.68, 16.03, 49.59, 400, 1803, 46.51948929, 6.56354141, 10, 0.12, 415.4, -0.4, -1.1, 2.1, 1.2, 335, 16
2023-03-30, 11:54:04.596, 966.39, 16.19, 49.51, 400, 1727, 46.51955414, 6.56354380, 11, 0.01, 405.7, 1.0, -2.0, 3.0, 1.3, 292, 17
2023-03-30, 11:54:05.698, 1040.24, 16.16, 49.54, 400, 1759, 46.51955414, 6.56354380, 11, 0.01, 405.2, 0.9, -2.1, 3.4, 1.4, 305, 17
2023-03-30, 11:54:06.802, 1101.68, 16.16, 49.49, 400, 1715, 46.51955414, 6.56354380, 11, 0.01, 405.2, 0.9, -2.1, 3.0, 1.5, 327, 17
2023-03-30, 11:54:07.908, 1114.25, 16.19, 49.49, 400, 1721, 46.51956558, 6.56354141, 11, 0.01, 405.3, 1.0, -2.3, 2.9, 1.4, 325, 17
2023-03-30, 11:54:09.014, 1115.15, 16.17, 49.42, 400, 1763, 46.51956558, 6.56354380, 11, 0.01, 405.3, 0.8, -2.2, 3.0, 0.7, 317, 17
2023-03-30, 11:54:10.121, 1108.86, 16.16, 49.42, 400, 1769, 46.51957321, 6.56354380, 11, 0.02, 405.4, 0.9, -2.2, 3.2, 0.9, 308, 17
2023-03-30, 11:54:11.225, 1102.58, 16.19, 49.40, 400, 1747, 46.51957321, 6.56354666, 11, 0.06, 405.5, 0.9, -2.2, 2.9, 0.7, 306, 17
2023-03-30, 11:54:12.333, 1096.30, 16.16, 49.33, 400, 1757, 46.51957321, 6.56354475, 11, 0.01, 405.3, 1.0, -2.3, 3.1, 0.9, 322, 17
2023-03-30, 11:54:13.439, 1089.28, 16.19, 49.36, 400, 1813, 46.51957321, 6.56354380, 11, 0.01, 405.4, 0.9, -2.2, 3.2, 1.1, 323, 17
2023-03-30, 11:54:14.546, 1084.30, 16.20, 49.31, 400, 1741, 46.51958084, 6.56354380, 11, 0.02, 405.4, 0.9, -2.0, 3.1, 0.7, 317, 17
2023-03-30, 11:54:15.651, 1078.02, 16.17, 49.27, 400, 1765, 46.51958084, 6.56353951, 11, 0.01, 405.3, 1.0, -2.2, 3.5, 1.0, 321, 17
2023-03-30, 11:54:16.759, 1068.96, 16.20, 49.28, 400, 1783, 46.51958084, 6.56353951, 11, 0.01, 405.3, 0.8, -2.0, 2.6, 1.3, 323, 17
2023-03-30, 11:54:17.864, 1060.64, 16.19, 49.27, 400, 1705, 46.51958084, 6.56353855, 11, 0.01, 405.4, 1.0, -2.1, 2.8, 1.2, 317, 17
2023-03-30, 11:54:18.969, 1055.66, 16.21, 49.27, 400, 1761, 46.51958084, 6.56353664, 11, 0.01, 405.5, 1.1, -2.0, 3.0, 1.0, 312, 17
2023-03-30, 11:54:20.076, 1050.68, 16.19, 49.24, 400, 1723, 46.51958084, 6.56353664, 11, 0.01, 405.6, 0.9, -2.1, 3.0, 1.3, 313, 17
2023-03-30, 11:54:21.182, 1042.36, 16.20, 49.22, 400, 1749, 46.51958084, 6.56353474, 11, 0.02, 405.7, 1.0, -2.2, 3.2, 1.5, 310, 17
2023-03-30, 11:54:22.288, 1033.30, 16.19, 49.23, 400, 1749, 46.51958084, 6.56353474, 11, 0.02, 405.8, 0.9, -2.2, 3.1, 1.3, 301, 17
2023-03-30, 11:54:23.394, 1028.32, 16.16, 49.21, 400, 1747, 46.51958084, 6.56353045, 11, 0.07, 405.9, 1.0, -2.0, 3.0, 1.2, 292, 17
2023-03-30, 11:54:24.499, 1020.00, 16.19, 49.18, 400, 1763, 46.51958847, 6.56353378, 11, 0.02, 406.2, 0.9, -2.3, 2.5, 1.5, 292, 17
2023-03-30, 11:54:25.605, 1010.94, 16.17, 49.19, 400, 1763, 46.51959610, 6.56353378, 11, 0.06, 406.7, 1.0, -2.2, 3.5, 1.3, 298, 17
2023-03-30, 11:54:26.712, 1003.92, 16.16, 49.17, 400, 1769, 46.51959610, 6.56353855, 11, 0.05, 406.9, 1.0, -2.3, 2.6, 1.5, 294, 17
2023-03-30, 11:54:27.846, 997.64, 16.17, 49.19, 400, 1751, 46.51959610, 6.56354141, 11, 0.05, 407.1, 0.8, -2.3, 3.1, 1.2, 294, 17
2023-03-30, 11:54:28.949, 988.58, 16.17, 49.23, 400, 1775, 46.51959610, 6.56354141, 11, 0.04, 407.2, 1.0, -2.3, 3.3, 1.2, 291, 17
2023-03-30, 11:54:30.055, 983.61, 16.16, 49.26, 400, 1771, 46.51959610, 6.56354141, 11, 0.03, 407.4, 0.9, -2.3, 3.4, 1.1, 289, 17
2023-03-30, 11:54:31.160, 976.59, 16.17, 49.27, 400, 1757, 46.51959610, 6.56354141, 11, 0.02, 407.7, 0.9, -2.4, 3.1, 0.9, 301, 17
2023-03-30, 11:54:32.266, 970.31, 16.16, 49.29, 400, 1755, 46.51959610, 6.56354475, 11, 0.03, 408.0, 0.8, -2.2, 2.7, 0.9, 322, 17
2023-03-30, 11:54:33.372, 959.94, 16.17, 49.30, 400, 1741, 46.51960373, 6.56354475, 11, 0.05, 408.2, 1.0, -2.3, 3.1, 1.1, 321, 17
2023-03-30, 11:54:34.478, 954.96, 16.17, 49.33, 400, 1743, 46.51961136, 6.56354904, 11, 0.09, 408.5, 0.8, -2.3, 3.4, 1.1, 310, 17
2023-03-30, 11:54:35.580, 948.68, 16.16, 49.29, 400, 1729, 46.51961136, 6.56355286, 11, 0.11, 408.8, 1.0, -2.3, 2.5, 1.0, 300, 17
2023-03-30, 11:54:36.684, 939.62, 16.17, 49.28, 400, 1735, 46.51961899, 6.56356001, 11, 0.11, 409.4, 0.9, -2.2, 2.8, 1.0, 302, 17
2023-03-30, 11:54:37.790, 933.34, 16.16, 49.28, 400, 1731, 46.51961899, 6.56356716, 11, 0.13, 409.5, 0.8, -2.3, 2.9, 1.1, 321, 17
2023-03-30, 11:54:38.893, 925.02, 16.17, 49.29, 400, 1745, 46.51963043, 6.56356812, 11, 0.13, 409.8, 0.9, -2.1, 3.0, 1.5, 312, 17
2023-03-30, 11:54:39.996, 913.19, 16.14, 49.30, 400, 1753, 46.51963043, 6.56356812, 11, 0.13, 409.8, 0.9, -2.2, 2.9, 1.9, 315, 17
2023-03-30, 11:54:41.100, 893.19, 16.12, 49.30, 400, 1737, 46.51963043, 6.56356812, 11, 0.14, 409.8, 0.9, -2.2, 2.7, 2.1, 315, 17
2023-03-30, 11:54:42.206, 885.44, 16.13, 49.27, 400, 1709, 46.51963043, 6.56357002, 11, 0.11, 409.9, 0.9, -2.2, 2.9, 1.8, 305, 17
2023-03-30, 11:54:43.311, 879.16, 16.14, 49.26, 400, 1761, 46.51963043, 6.56357336, 11, 0.13, 410.2, 0.8, -2.2, 2.8, 1.9, 309, 17
2023-03-30, 11:54:44.417, 872.14, 16.14, 49.30, 400, 1715, 46.51963043, 6.56357336, 10, 0.08, 410.3, 1.0, -2.2, 2.7, 1.9, 315, 17
2023-03-30, 11:54:45.522, 859.74, 16.14, 49.28, 400, 1729, 46.51963043, 6.56357098, 10, 0.07, 410.4, 1.0, -2.2, 3.3, 1.1, 325, 17
2023-03-30, 11:54:46.630, 834.77, 16.13, 49.34, 400, 1733, 46.51961899, 6.56357336, 11, 0.06, 410.4, 0.9, -2.2, 3.2, 1.7, 312, 17
2023-03-30, 11:54:47.735, 842.93, 16.13, 49.30, 400, 1755, 46.51961899, 6.56357002, 11, 0.05, 410.0, 1.0, -2.3, 3.0, 2.2, 311, 17
2023-03-30, 11:54:48.842, 847.01, 16.13, 49.33, 400, 1739, 46.51961899, 6.56357002, 11, 0.05, 409.9, 0.9, -2.2, 2.8, 1.5, 308, 17
2023-03-30, 11:54:49.948, 839.42, 16.14, 49.36, 400, 1715, 46.51961899, 6.56356812, 11, 0.06, 409.7, 0.8, -2.2, 2.6, 1.6, 326, 17
2023-03-30, 11:54:51.056, 835.18, 16.14, 49.36, 400, 1717, 46.51961899, 6.56356716, 11, 0.06, 409.6, 0.9, -2.2, 2.8, 1.3, 324, 17
2023-03-30, 11:54:52.162, 830.20, 16.14, 49.38, 400, 1707, 46.51961899, 6.56356192, 10, 0.05, 409.4, 1.0, -2.2, 3.0, 1.3, 317, 17
2023-03-30, 11:54:53.267, 823.92, 16.13, 49.35, 400, 1707, 46.51961899, 6.56355476, 11, 0.06, 408.8, 0.8, -2.2, 3.0, 1.2, 313, 17
2023-03-30, 11:54:54.373, 819.67, 16.14, 49.38, 400, 1715, 46.51961136, 6.56355190, 11, 0.03, 408.3, 0.9, -2.1, 2.7, 1.1, 310, 17
2023-03-30, 11:54:55.480, 810.04, 16.14, 49.36, 400, 1705, 46.51961136, 6.56354666, 11, 0.07, 408.0, 1.0, -2.1, 3.1, 0.8, 322, 17
2023-03-30, 11:54:56.584, 807.84, 16.16, 49.36, 400, 1713, 46.51961136, 6.56354141, 11, 0.06, 407.0, 0.9, -2.0, 2.6, 0.8, 317, 17
2023-03-30, 11:54:57.692, 796.01, 16.17, 49.36, 400, 1696, 46.51961899, 6.56353855, 11, 0.04, 406.5, 1.0, -2.1, 2.7, 0.9, 303, 17
2023-03-30, 11:54:58.795, 776.34, 16.17, 49.36, 400, 1727, 46.51961899, 6.56353664, 11, 0.05, 406.1, 0.8, -2.2, 2.9, 0.7, 314, 17
2023-03-30, 11:54:59.903, 769.73, 16.13, 49.34, 400, 1719, 46.51961899, 6.56353474, 11, 0.05, 406.0, 0.9, -2.1, 3.2, 0.6, 298, 17
2023-03-30, 11:55:01.010, 766.22, 16.17, 49.30, 400, 1711, 46.51961899, 6.56353474, 11, 0.05, 406.0, 0.8, -2.1, 3.5, 0.7, 284, 17
2023-03-30, 11:55:02.116, 764.76, 16.17, 49.32, 400, 1733, 46.51961899, 6.56353140, 11, 0.07, 405.9, 0.9, -2.2, 3.3, 1.2, 313, 17
2023-03-30, 11:55:03.222, 759.21, 16.17, 49.30, 400, 1731, 46.51963043, 6.56352854, 11, 0.10, 405.8, 0.9, -2.0, 3.5, 1.2, 323, 17
2023-03-30, 11:55:04.331, 757.00, 16.16, 49.28, 400, 1701, 46.51963043, 6.56352329, 11, 0.16, 405.9, 0.9, -2.1, 2.6, 1.0, 312, 17
2023-03-30, 11:55:05.435, 753.49, 16.17, 49.27, 400, 1688, 46.51963043, 6.56352139, 11, 0.14, 405.8, 0.9, -2.1, 3.4, 1.3, 311, 17
2023-03-30, 11:55:06.542, 747.95, 16.19, 49.33, 400, 1713, 46.51963043, 6.56351852, 11, 0.12, 405.8, 0.9, -2.3, 3.0, 1.3, 305, 17
2023-03-30, 11:55:07.647, 742.40, 16.19, 49.29, 400, 1721, 46.51963043, 6.56351614, 11, 0.12, 405.8, 1.0, -2.1, 3.1, 1.7, 312, 17
2023-03-30, 11:55:08.752, 736.85, 16.16, 49.26, 400, 1705, 46.51963806, 6.56351614, 11, 0.14, 405.8, 0.9, -2.2, 2.5, 1.8, 324, 17
2023-03-30, 11:55:09.855, 734.64, 16.14, 49.26, 400, 1723, 46.51963806, 6.56351519, 11, 0.14, 405.7, 0.9, -2.4, 2.8, 2.1, 317, 17
2023-03-30, 11:55:10.959, 729.10, 16.14, 49.31, 400, 1713, 46.51963806, 6.56351519, 11, 0.14, 405.8, 0.9, -2.1, 2.7, 3.0, 319, 17
2023-03-30, 11:55:12.062, 725.59, 16.12, 49.32, 400, 1731, 46.51963806, 6.56351519, 11, 0.13, 405.8, 0.9, -2.3, 3.1, 2.9, 318, 17
2023-03-30, 11:55:13.171, 718.00, 16.14, 49.34, 400, 1668, 46.51964569, 6.56351328, 11, 0.13, 405.6, 1.0, -2.1, 2.4, 2.8, 321, 17
2023-03-30, 11:55:14.274, 716.53, 16.09, 49.27, 400, 1692, 46.51964569, 6.56351614, 11, 0.15, 405.3, 0.8, -2.3, 2.7, 2.0, 330, 17
2023-03-30, 11:55:15.378, 713.02, 16.10, 49.31, 400, 1634, 46.51965332, 6.56351519, 11, 0.16, 405.2, 0.9, -2.3, 2.7, 1.9, 336, 17
2023-03-30, 11:55:16.480, 707.47, 16.10, 49.28, 400, 1618, 46.51966095, 6.56351089, 10, 0.20, 405.0, 0.9, -2.3, 3.2, 2.0, 340, 17
2023-03-30, 11:55:18.844, 700.45, 16.14, 49.30, 400, 1612, 46.51966858, 6.56351328, 10, 0.20, 404.6, 0.9, -2.1, 2.7, 1.6, 335, 17
2023-03-30, 11:55:19.948, 696.95, 16.13, 49.29, 400, 1646, 46.51966858, 6.56351328, 11, 0.20, 404.7, 0.9, -2.3, 3.3, 1.7, 335, 17
2023-03-30, 11:55:21.051, 692.13, 16.16, 49.29, 400, 1626, 46.51967621, 6.56351519, 11, 0.20, 404.8, 1.0, -2.3, 3.2, 1.9, 329, 17
2023-03-30, 11:55:22.157, 684.54, 16.12, 49.27, 400, 1658, 46.51968765, 6.56351614, 10, 0.13, 404.8, 0.9, -2.1, 3.3, 1.7, 333, 17
2023-03-30, 11:55:23.266, 663.41, 16.13, 49.27, 400, 1709, 46.51968765, 6.56352043, 10, 0.15, 404.8, 0.9, -2.0, 3.1, 1.8, 334, 17
2023-03-30, 11:55:24.373, 502.57, 16.10, 49.23, 400, 1630, 46.51969528, 6.56352329, 10, 0.14, 404.8, 1.0, -2.0, 3.4, 1.8, 333, 17
2023-03-30, 11:56:06.051, 488.13, 16.17, 49.20, 400, 1564, 46.51969528, 6.56353378, 11, 0.02, 401.8, 0.2, -0.4, 355.2, 1.3, 322, 17
2023-03-30, 11:56:07.159, 629.79, 16.16, 49.21, 400, 1576, 46.51969528, 6.56353378, 11, 0.00, 401.8, 0.2, -0.5, 355.7, 1.3, 318, 17
2023-03-30, 11:56:08.266, 659.65, 16.16, 49.19, 400, 1600, 46.51969528, 6.56353378, 11, 0.01, 401.8, 0.2, -0.5, 356.4, 1.2, 315, 17
2023-03-30, 11:56:09.371, 655.17, 16.16, 49.17, 400, 1564, 46.51969528, 6.56353378, 11, 0.01, 401.8, 0.2, -0.4, 355.8, 1.1, 312, 17
2023-03-30, 11:56:10.478, 652.39, 16.16, 49.09, 400, 1592, 46.51969528, 6.56353378, 11, 0.03, 401.8, 0.2, -0.6, 355.7, 1.2, 305, 17
2023-03-30, 11:56:11.585, 655.74, 16.16, 49.14, 400, 1610, 46.51969528, 6.56353378, 11, 0.01, 401.8, 0.4, -0.4, 355.5, 1.2, 300, 17
2023-03-30, 11:56:12.693, 657.04, 16.14, 49.14, 400, 1622, 46.51969528, 6.56353378, 11, 0.01, 401.8, 0.3, -0.4, 355.6, 1.4, 302, 17
2023-03-30, 11:56:13.799, 652.96, 16.16, 49.14, 400, 1612, 46.51969528, 6.56353378, 11, 0.01, 401.8, 0.2, -0.5, 355.7, 1.5, 301, 17
2023-03-30, 11:56:14.906, 652.96, 16.14, 49.14, 400, 1630, 46.51969528, 6.56353378, 11, 0.01, 401.8, 0.2, -0.4, 355.8, 1.3, 305, 17
2023-03-30, 11:56:16.016, 654.27, 16.14, 49.13, 400, 1616, 46.51969528, 6.56353378, 11, 0.01, 401.8, 0.2, -0.5, 355.7, 1.3, 311, 17
2023-03-30, 11:56:17.122, 653.53, 16.13, 49.13, 400, 1600, 46.51969528, 6.56353378, 11, 0.02, 401.8, 0.3, -0.5, 355.9, 1.0, 304, 17
2023-03-30, 11:56:18.229, 649.45, 16.14, 49.14, 400, 1658, 46.51969528, 6.56353378, 11, 0.03, 401.8, 0.3, -0.6, 355.8, 0.9, 290, 17
2023-03-30, 11:56:19.335, 646.68, 16.14, 49.17, 400, 1606, 46.51969528, 6.56353378, 11, 0.03, 401.8, 0.1, -0.5, 355.4, 1.1, 301, 17
2023-03-30, 11:56:20.444, 647.99, 16.13, 49.18, 400, 1622, 46.51969528, 6.56353378, 11, 0.02, 401.8, 0.2, -0.6, 355.3, 1.3, 295, 17
2023-03-30, 11:56:21.550, 643.91, 16.14, 49.26, 400, 1620, 46.51969528, 6.56353378, 11, 0.02, 401.8, 0.2, -0.6, 355.3, 1.5, 294, 17
2023-03-30, 11:56:22.656, 643.17, 16.13, 49.24, 400, 1628, 46.51969528, 6.56353378, 11, 0.01, 401.8, 0.2, -0.5, 355.9, 1.4, 294, 17
2023-03-30, 11:56:23.762, 644.48, 16.12, 49.32, 400, 1650, 46.51969528, 6.56353378, 11, 0.03, 401.8, 0.2, -0.6, 356.2, 1.4, 294, 17
2023-03-30, 11:56:24.868, 641.70, 16.12, 49.31, 400, 1620, 46.51969528, 6.56353378, 11, 0.05, 401.8, 0.1, -0.4, 355.7, 1.3, 302, 17
2023-03-30, 11:56:25.971, 637.62, 16.12, 49.29, 400, 1620, 46.51969528, 6.56353140, 11, 0.05, 401.8, 0.3, -0.6, 355.6, 1.9, 307, 17
2023-03-30, 11:56:27.075, 638.93, 16.12, 49.32, 400, 1676, 46.51969528, 6.56353140, 11, 0.06, 401.8, 0.2, -0.5, 355.1, 2.2, 311, 17
2023-03-30, 11:56:28.180, 638.19, 16.10, 49.34, 400, 1670, 46.51969528, 6.56353140, 11, 0.05, 401.8, 0.2, -0.5, 355.8, 1.9, 313, 17
2023-03-30, 11:56:29.285, 638.19, 16.09, 49.33, 400, 1662, 46.51969528, 6.56353140, 11, 0.04, 401.8, 0.1, -0.6, 356.1, 1.8, 314, 17
2023-03-30, 11:56:30.388, 639.50, 16.09, 49.36, 400, 1650, 46.51969528, 6.56353140, 11, 0.03, 401.8, 0.2, -0.5, 355.8, 1.8, 312, 17
2023-03-30, 11:56:31.492, 637.46, 16.09, 49.35, 400, 1640, 46.51968765, 6.56353045, 11, 0.02, 401.7, 0.3, -0.7, 355.7, 1.6, 309, 17
2023-03-30, 11:56:32.596, 635.42, 16.07, 49.32, 400, 1644, 46.51968765, 6.56352854, 11, 0.03, 401.5, 0.1, -0.6, 356.1, 1.7, 300, 17
2023-03-30, 11:56:33.705, 634.68, 16.07, 49.35, 400, 1628, 46.51968765, 6.56352854, 11, 0.02, 401.5, 0.2, -0.5, 356.1, 1.9, 295, 17
2023-03-30, 11:56:34.812, 632.64, 16.06, 49.32, 400, 1632, 46.51968765, 6.56353045, 11, 0.02, 401.5, 0.1, -0.5, 355.4, 2.1, 300, 17
2023-03-30, 11:56:35.919, 631.91, 16.06, 49.32, 400, 1636, 46.51968765, 6.56353045, 11, 0.00, 401.5, 0.2, -0.6, 355.9, 1.6, 302, 17
2023-03-30, 11:56:37.028, 631.18, 16.03, 49.38, 400, 1640, 46.51968765, 6.56353045, 11, 0.01, 401.6, 0.2, -0.6, 355.8, 2.1, 291, 17
2023-03-30, 11:56:38.133, 629.14, 16.04, 49.37, 400, 1630, 46.51968765, 6.56352854, 11, 0.01, 401.6, 0.2, -0.4, 356.0, 2.6, 305, 17
2023-03-30, 11:56:39.239, 626.36, 16.03, 49.38, 400, 1666, 46.51968765, 6.56352615, 11, 0.03, 401.6, 0.2, -0.5, 355.6, 2.7, 305, 17
2023-03-30, 11:56:40.346, 627.67, 16.03, 49.37, 400, 1602, 46.51968765, 6.56352329, 11, 0.04, 401.7, 0.2, -0.6, 355.8, 2.7, 292, 17
2023-03-30, 11:56:41.453, 625.63, 16.01, 49.35, 400, 1612, 46.51968765, 6.56352520, 11, 0.01, 401.8, 0.2, -0.4, 355.8, 2.7, 303, 17
2023-03-30, 11:56:42.558, 626.93, 16.00, 49.30, 400, 1654, 46.51968765, 6.56352854, 11, 0.03, 401.9, 0.2, -0.5, 355.7, 2.7, 306, 17
2023-03-30, 11:56:43.664, 622.85, 15.98, 49.34, 400, 1622, 46.51969528, 6.56352615, 11, 0.03, 402.1, 0.2, -0.4, 355.7, 2.1, 304, 17
2023-03-30, 11:56:44.770, 622.12, 15.98, 49.39, 400, 1620, 46.51969528, 6.56352854, 11, 0.02, 402.2, 0.2, -0.7, 355.7, 2.7, 308, 17
2023-03-30, 11:56:45.878, 620.08, 15.97, 49.34, 400, 1622, 46.51969528, 6.56352615, 11, 0.02, 402.3, 0.1, -0.4, 355.8, 2.1, 313, 17
2023-03-30, 11:56:47.019, 619.34, 15.97, 49.39, 400, 1606, 46.51969528, 6.56352520, 11, 0.01, 402.3, 0.2, -0.5, 355.8, 2.1, 308, 17
2023-03-30, 11:56:48.123, 617.30, 16.00, 49.36, 400, 1608, 46.51970291, 6.56352615, 11, 0.02, 402.4, 0.1, -0.5, 355.3, 1.9, 315, 17
2023-03-30, 11:56:49.226, 618.61, 16.00, 49.38, 400, 1614, 46.51970291, 6.56352520, 11, 0.03, 402.5, 0.3, -0.6, 355.8, 2.1, 306, 17
2023-03-30, 11:56:50.333, 614.53, 16.00, 49.39, 400, 1582, 46.51970291, 6.56352854, 11, 0.02, 402.6, 0.2, -0.5, 355.5, 2.0, 310, 17
2023-03-30, 11:56:51.439, 615.84, 16.00, 49.41, 400, 1588, 46.51970291, 6.56352854, 11, 0.01, 402.7, 0.1, -0.4, 355.1, 1.7, 303, 17
2023-03-30, 11:56:52.545, 611.76, 15.98, 49.47, 400, 1626, 46.51970291, 6.56352615, 11, 0.01, 402.8, 0.2, -0.5, 355.8, 1.7, 309, 17
2023-03-30, 11:56:53.652, 613.06, 16.00, 49.40, 400, 1606, 46.51970291, 6.56352854, 11, 0.00, 402.8, 0.1, -0.5, 355.3, 1.4, 325, 17
2023-03-30, 11:56:54.759, 611.02, 15.98, 49.39, 400, 1610, 46.51970291, 6.56353140, 11, 0.03, 402.9, 0.2, -0.5, 355.5, 1.6, 328, 17
2023-03-30, 11:56:55.867, 608.98, 16.00, 49.45, 400, 1586, 46.51970291, 6.56353140, 11, 0.01, 402.9, 0.2, -0.6, 354.9, 1.7, 326, 17
2023-03-30, 11:56:56.974, 612.33, 15.98, 49.45, 400, 1612, 46.51970291, 6.56353140, 11, 0.01, 402.9, 0.2, -0.6, 355.3, 1.2, 315, 17
2023-03-30, 11:56:58.082, 610.29, 16.01, 49.44, 400, 1578, 46.51970291, 6.56353378, 11, 0.01, 402.9, 0.2, -0.4, 355.7, 1.1, 315, 17
2023-03-30, 11:56:59.186, 611.59, 16.01, 49.46, 400, 1547, 46.51969528, 6.56353140, 11, 0.06, 402.9, 0.2, -0.6, 355.4, 1.1, 319, 17
2023-03-30, 11:57:00.290, 609.55, 16.01, 49.46, 400, 1527, 46.51969528, 6.56353474, 11, 0.03, 402.9, 0.3, -0.6, 355.6, 1.4, 318, 17
2023-03-30, 11:57:01.395, 608.82, 16.01, 49.44, 400, 1505, 46.51968765, 6.56353664, 11, 0.05, 402.9, 0.2, -0.4, 355.7, 2.0, 324, 17
2023-03-30, 11:57:02.499, 606.78, 16.01, 49.40, 400, 1547, 46.51968765, 6.56353855, 11, 0.06, 402.8, 0.2, -0.4, 355.5, 1.8, 322, 17
2023-03-30, 11:57:03.602, 604.74, 16.01, 49.40, 400, 1515, 46.51967621, 6.56353855, 11, 0.06, 402.6, 0.0, -4.9, 355.9, 1.8, 321, 17
2023-03-30, 11:57:04.706, 608.08, 16.00, 49.45, 400, 1547, 46.51967621, 6.56353855, 11, 0.08, 402.6, 0.2, -0.5, 355.6, 1.8, 321, 17
2023-03-30, 11:57:05.810, 606.04, 16.01, 49.43, 400, 1517, 46.51967621, 6.56353855, 11, 0.03, 402.6, 0.2, -0.5, 355.1, 1.8, 324, 17
2023-03-30, 11:57:06.917, 604.00, 15.98, 49.43, 400, 1493, 46.51967621, 6.56353855, 11, 0.01, 402.6, 0.2, -0.6, 355.6, 1.9, 322, 17
2023-03-30, 11:57:08.023, 604.00, 16.00, 49.39, 400, 1479, 46.51967621, 6.56353855, 11, 0.01, 402.6, 0.1, -0.3, 355.8, 1.8, 325, 17
2023-03-30, 11:57:09.130, 605.31, 16.01, 49.40, 400, 1483, 46.51967621, 6.56353855, 11, 0.02, 402.6, 0.3, -0.6, 355.6, 1.6, 323, 17
2023-03-30, 11:57:10.234, 603.27, 16.03, 49.38, 400, 1471, 46.51967621, 6.56353855, 11, 0.07, 402.6, 0.2, -0.5, 355.6, 1.2, 319, 17
2023-03-30, 11:57:11.342, 601.23, 16.00, 49.41, 400, 1487, 46.51967621, 6.56353855, 11, 0.02, 402.6, 0.2, -0.5, 355.9, 1.1, 319, 17
2023-03-30, 11:57:12.448, 602.53, 16.03, 49.42, 400, 1481, 46.51967621, 6.56353855, 11, 0.02, 402.5, 0.2, -0.5, 355.8, 1.2, 321, 17
2023-03-30, 11:57:13.555, 600.49, 16.00, 49.38, 400, 1473, 46.51967621, 6.56353855, 11, 0.04, 402.5, 0.2, -0.5, 355.8, 1.2, 319, 17
2023-03-30, 11:57:14.661, 601.80, 16.04, 49.39, 400, 1457, 46.51967621, 6.56353855, 11, 0.02, 402.5, 0.2, -0.5, 355.8, 0.9, 314, 17
2023-03-30, 11:57:15.769, 601.80, 16.03, 49.39, 400, 1475, 46.51967621, 6.56353855, 11, 0.04, 402.5, 0.3, -0.5, 355.8, 1.0, 312, 17
2023-03-30, 11:57:16.876, 601.80, 16.04, 49.39, 400, 1509, 46.51967621, 6.56353855, 11, 0.03, 402.5, 0.2, -0.5, 355.7, 1.2, 302, 17
2023-03-30, 11:57:17.982, 601.80, 16.04, 49.38, 400, 1499, 46.51967621, 6.56353855, 11, 0.02, 402.5, 0.2, -0.4, 355.5, 0.9, 303, 17
2023-03-30, 11:57:19.088, 599.76, 16.04, 49.33, 400, 1503, 46.51967621, 6.56353855, 11, 0.02, 402.5, 0.2, -0.3, 355.2, 0.6, 342, 17
2023-03-30, 11:57:20.194, 599.76, 16.06, 49.36, 400, 1517, 46.51967621, 6.56353855, 11, 0.02, 402.5, 0.2, -0.3, 355.7, 1.0, 4, 17
2023-03-30, 11:57:21.301, 599.76, 16.06, 49.38, 400, 1535, 46.51967621, 6.56353855, 11, 0.05, 402.5, 0.2, -0.5, 355.6, 0.8, 340, 17
2023-03-30, 11:57:22.408, 599.76, 16.04, 49.34, 400, 1541, 46.51967621, 6.56353664, 11, 0.10, 402.5, 0.1, -0.7, 355.3, 0.7, 327, 17
2023-03-30, 11:57:23.513, 599.76, 16.07, 49.38, 400, 1549, 46.51967621, 6.56353664, 11, 0.12, 402.5, 0.3, -0.5, 355.7, 1.0, 309, 17
2023-03-30, 11:57:24.620, 599.76, 16.06, 49.38, 400, 1531, 46.51966858, 6.56353474, 11, 0.13, 402.4, 0.2, -0.3, 355.9, 1.2, 298, 17
2023-03-30, 11:57:25.727, 599.76, 16.04, 49.39, 400, 1525, 46.51966858, 6.56353378, 11, 0.11, 402.4, 0.1, -0.3, 355.6, 1.2, 313, 17
2023-03-30, 11:57:26.833, 599.76, 16.07, 49.41, 400, 1539, 46.51966858, 6.56353378, 11, 0.12, 402.4, 0.1, -0.2, 355.5, 1.0, 321, 17
2023-03-30, 11:57:27.940, 599.76, 16.06, 49.39, 400, 1539, 46.51966858, 6.56353378, 11, 0.13, 402.3, 0.1, -0.5, 355.7, 1.2, 308, 17
2023-03-30, 11:57:29.048, 599.76, 16.04, 49.37, 400, 1543, 46.51966858, 6.56353140, 11, 0.13, 402.3, 0.2, -0.3, 355.5, 1.1, 299, 17
2023-03-30, 11:57:30.154, 599.76, 16.07, 49.40, 400, 1572, 46.51966858, 6.56353140, 11, 0.14, 402.3, 0.2, -0.4, 355.5, 1.2, 300, 17
2023-03-30, 11:57:31.260, 601.80, 16.07, 49.44, 400, 1561, 46.51966858, 6.56353140, 11, 0.15, 402.2, 0.2, -0.4, 355.7, 1.1, 310, 17
2023-03-30, 11:57:32.368, 603.84, 16.06, 49.43, 400, 1578, 46.51966095, 6.56353045, 11, 0.17, 402.2, 0.2, -0.5, 356.0, 0.9, 325, 17
2023-03-30, 11:57:33.471, 603.84, 16.06, 49.42, 400, 1543, 46.51966095, 6.56353045, 11, 0.19, 402.1, 0.2, -0.6, 355.7, 0.8, 320, 17
2023-03-30, 11:57:34.575, 604.57, 16.06, 49.39, 400, 1527, 46.51966095, 6.56353045, 11, 0.20, 402.0, 0.0, -0.3, 355.8, 1.0, 304, 17
2023-03-30, 11:57:35.704, 604.57, 16.06, 49.39, 400, 1570, 46.51965332, 6.56353045, 11, 0.23, 402.0, 0.1, -0.4, 355.5, 1.0, 309, 17
2023-03-30, 11:57:36.808, 601.23, 16.07, 49.41, 400, 1535, 46.51965332, 6.56353045, 11, 0.22, 401.9, 0.1, -0.5, 355.9, 1.1, 317, 17
2023-03-30, 11:57:37.910, 593.64, 16.07, 49.42, 400, 1572, 46.51965332, 6.56353045, 11, 0.22, 401.9, 0.2, -0.4, 355.3, 1.2, 317, 17
2023-03-30, 11:57:39.012, 510.08, 16.09, 49.44, 400, 1555, 46.51965332, 6.56353045, 11, 0.22, 401.8, 0.3, -0.6, 355.5, 1.3, 311, 17
2023-03-30, 11:57:40.115, 382.46, 16.04, 49.41, 400, 1610, 46.51965332, 6.56353045, 11, 0.21, 401.8, 0.2, -0.4, 355.9, 1.7, 303, 17
2023-03-30, 11:58:11.806, 631.58, 16.03, 49.30, 400, 1461, 46.51960373, 6.56351519, 11, 0.01, 400.1, 2.1, -1.6, 358.3, 1.6, 304, 17
2023-03-30, 11:58:12.912, 648.96, 16.01, 49.26, 400, 1461, 46.51960373, 6.56351614, 11, 0.00, 400.0, 2.2, -1.5, 358.7, 1.6, 297, 17
2023-03-30, 11:58:14.021, 659.90, 16.01, 49.27, 400, 1441, 46.51960373, 6.56351614, 11, 0.00, 400.0, 2.0, -1.3, 359.1, 1.8, 278, 17
2023-03-30, 11:58:15.127, 670.43, 16.03, 49.29, 400, 1439, 46.51960373, 6.56351614, 11, 0.01, 400.0, 2.0, -1.4, 358.7, 1.8, 286, 17
2023-03-30, 11:58:16.234, 691.48, 16.01, 49.25, 400, 1473, 46.51960373, 6.56351852, 11, 0.01, 399.9, 2.2, -1.4, 359.0, 1.6, 298, 17
2023-03-30, 11:58:17.339, 701.27, 16.01, 49.22, 400, 1473, 46.51960373, 6.56352043, 11, 0.03, 399.9, 2.2, -1.5, 359.1, 1.6, 302, 17
2023-03-30, 11:58:18.446, 706.82, 16.00, 49.22, 400, 1443, 46.51959610, 6.56352043, 11, 0.01, 399.8, 2.2, -1.3, 359.2, 1.6, 309, 17
2023-03-30, 11:58:19.552, 710.33, 16.00, 49.29, 400, 1459, 46.51959610, 6.56352139, 11, 0.03, 399.7, 2.2, -1.4, 358.9, 1.7, 312, 17
2023-03-30, 11:58:20.660, 715.14, 16.00, 49.27, 400, 1487, 46.51959610, 6.56352520, 11, 0.03, 399.6, 2.1, -1.5, 358.9, 1.8, 304, 17
2023-03-30, 11:58:21.766, 713.84, 16.00, 49.23, 400, 1479, 46.51959610, 6.56352520, 11, 0.02, 399.5, 2.1, -1.5, 358.2, 1.8, 308, 17
2023-03-30, 11:58:22.873, 717.92, 16.00, 49.23, 400, 1469, 46.51959610, 6.56352615, 11, 0.01, 399.3, 2.1, -1.4, 358.7, 2.3, 305, 17
2023-03-30, 11:58:23.978, 718.65, 16.00, 49.22, 400, 1495, 46.51959610, 6.56352615, 11, 0.01, 399.2, 2.1, -1.3, 358.3, 2.2, 298, 17
2023-03-30, 11:58:25.088, 717.35, 15.97, 49.23, 400, 1507, 46.51959610, 6.56352854, 11, 0.01, 399.3, 2.1, -1.3, 358.6, 2.3, 299, 17
2023-03-30, 11:58:26.194, 719.39, 15.97, 49.22, 400, 1477, 46.51959610, 6.56352615, 11, 0.06, 399.2, 2.1, -1.4, 359.1, 3.1, 307, 17
2023-03-30, 11:58:27.301, 720.12, 15.97, 49.25, 400, 1483, 46.51959610, 6.56352854, 11, 0.03, 399.1, 2.0, -1.3, 359.0, 3.1, 318, 17
2023-03-30, 11:58:28.408, 724.20, 15.97, 49.23, 400, 1459, 46.51959610, 6.56353378, 11, 0.05, 399.1, 1.9, -1.6, 358.6, 3.2, 331, 17
2023-03-30, 11:58:29.518, 724.93, 15.97, 49.23, 400, 1426, 46.51959610, 6.56353378, 11, 0.04, 399.0, 2.1, -1.4, 358.7, 2.8, 340, 17
2023-03-30, 11:58:30.623, 725.67, 15.96, 49.23, 400, 1414, 46.51959610, 6.56353855, 11, 0.02, 399.0, 2.0, -1.5, 358.8, 2.5, 327, 17
2023-03-30, 11:58:31.730, 727.71, 15.96, 49.23, 400, 1400, 46.51959610, 6.56353855, 11, 0.00, 399.0, 2.0, -1.4, 358.3, 2.9, 318, 17
2023-03-30, 11:58:32.839, 726.40, 15.96, 49.24, 400, 1404, 46.51959610, 6.56353951, 11, 0.02, 399.1, 2.1, -1.4, 358.6, 1.8, 306, 17
2023-03-30, 11:58:33.945, 728.44, 15.96, 49.24, 400, 1378, 46.51959610, 6.56353951, 11, 0.02, 399.0, 2.0, -1.5, 358.7, 1.8, 299, 17
2023-03-30, 11:58:35.053, 730.48, 15.97, 49.23, 400, 1406, 46.51959610, 6.56354141, 11, 0.02, 399.1, 2.1, -1.4, 359.1, 1.8, 295, 17
2023-03-30, 11:58:36.160, 729.18, 15.96, 49.24, 400, 1382, 46.51959610, 6.56353951, 11, 0.04, 399.1, 2.1, -1.5, 358.8, 1.4, 293, 17
2023-03-30, 11:58:37.266, 733.26, 15.97, 49.24, 400, 1380, 46.51959610, 6.56354380, 11, 0.02, 399.2, 2.1, -1.4, 358.6, 1.3, 307, 17
2023-03-30, 11:58:38.370, 731.95, 15.96, 49.22, 400, 1388, 46.51959610, 6.56354666, 11, 0.03, 399.3, 2.0, -1.4, 358.7, 1.3, 297, 17
2023-03-30, 11:58:39.473, 733.99, 15.94, 49.24, 400, 1366, 46.51960373, 6.56354666, 11, 0.03, 399.5, 2.1, -1.6, 358.9, 0.9, 294, 17
2023-03-30, 11:58:40.577, 736.03, 15.98, 49.20, 400, 1398, 46.51961136, 6.56355190, 11, 0.01, 399.7, 2.1, -1.5, 358.4, 1.4, 313, 17
2023-03-30, 11:58:41.683, 732.69, 15.98, 49.26, 400, 1378, 46.51961136, 6.56355476, 11, 0.06, 399.8, 2.1, -1.3, 358.9, 1.7, 314, 17
2023-03-30, 11:58:42.788, 734.73, 15.96, 49.23, 400, 1388, 46.51961136, 6.56355810, 11, 0.09, 399.9, 2.2, -1.5, 358.9, 1.6, 315, 17
2023-03-30, 11:58:43.890, 736.77, 15.98, 49.26, 400, 1386, 46.51961899, 6.56356001, 11, 0.09, 399.9, 2.1, -1.6, 358.9, 1.6, 289, 17
2023-03-30, 11:58:44.998, 738.81, 15.94, 49.24, 400, 1420, 46.51961899, 6.56356001, 11, 0.08, 400.0, 2.1, -1.7, 358.7, 2.4, 286, 17
2023-03-30, 11:58:46.104, 739.54, 15.96, 49.24, 400, 1404, 46.51961899, 6.56356192, 11, 0.07, 400.1, 2.0, -1.4, 358.5, 2.4, 294, 17
2023-03-30, 11:58:47.212, 738.24, 15.93, 49.29, 400, 1437, 46.51961136, 6.56356525, 11, 0.04, 400.2, 2.0, -1.5, 359.2, 3.3, 303, 17
2023-03-30, 11:58:48.319, 738.24, 15.92, 49.23, 400, 1400, 46.51961899, 6.56356716, 11, 0.04, 400.4, 2.0, -1.5, 358.7, 3.6, 302, 17
2023-03-30, 11:58:49.424, 740.28, 15.90, 49.22, 400, 1402, 46.51961899, 6.56356812, 11, 0.06, 400.5, 2.0, -1.6, 359.1, 4.1, 300, 17
2023-03-30, 11:58:50.533, 740.28, 15.87, 49.26, 400, 1420, 46.51963043, 6.56357002, 11, 0.05, 400.7, 2.1, -1.5, 359.0, 3.5, 305, 17
2023-03-30, 11:58:51.640, 743.05, 15.87, 49.22, 400, 1376, 46.51963043, 6.56357098, 11, 0.03, 401.0, 2.1, -1.3, 358.9, 3.9, 302, 17
2023-03-30, 11:58:52.746, 743.05, 15.87, 49.21, 400, 1400, 46.51963043, 6.56357336, 11, 0.02, 401.0, 2.2, -1.3, 358.8, 4.0, 292, 17
2023-03-30, 11:58:53.853, 741.01, 15.83, 49.16, 400, 1378, 46.51963043, 6.56357336, 11, 0.02, 401.1, 2.1, -1.4, 358.8, 4.4, 299, 17
2023-03-30, 11:58:54.987, 743.05, 15.80, 49.18, 400, 1404, 46.51963043, 6.56357336, 11, 0.03, 401.1, 2.1, -1.4, 358.3, 4.1, 290, 17
2023-03-30, 11:58:56.090, 745.09, 15.80, 49.17, 400, 1426, 46.51963806, 6.56357527, 11, 0.03, 401.2, 2.2, -1.3, 359.2, 3.7, 291, 17
2023-03-30, 11:58:57.194, 747.13, 15.80, 49.24, 400, 1370, 46.51963043, 6.56357622, 10, 0.01, 401.2, 2.2, -1.5, 358.5, 3.0, 308, 17
2023-03-30, 11:58:58.301, 743.78, 15.82, 49.20, 400, 1382, 46.51963806, 6.56358337, 10, 0.06, 401.3, 2.2, -1.3, 359.5, 3.6, 310, 17
2023-03-30, 11:58:59.406, 743.78, 15.83, 49.19, 400, 1384, 46.51963806, 6.56358337, 10, 0.05, 401.4, 2.2, -1.5, 358.7, 3.4, 307, 17
2023-03-30, 11:59:00.513, 745.82, 15.80, 49.22, 400, 1366, 46.51963806, 6.56358862, 10, 0.08, 401.4, 2.0, -1.4, 358.6, 3.5, 301, 17
2023-03-30, 11:59:01.620, 745.82, 15.80, 49.21, 400, 1390, 46.51963806, 6.56359148, 10, 0.07, 401.4, 2.1, -1.5, 358.5, 3.4, 305, 17
2023-03-30, 11:59:02.725, 745.82, 15.82, 49.25, 400, 1372, 46.51963806, 6.56359148, 10, 0.04, 401.4, 2.1, -1.3, 358.5, 2.9, 301, 17
2023-03-30, 11:59:03.833, 745.82, 15.80, 49.21, 400, 1366, 46.51964569, 6.56359148, 10, 0.03, 401.4, 2.1, -1.5, 359.7, 2.4, 294, 17
2023-03-30, 11:59:04.939, 739.70, 15.82, 49.25, 400, 1344, 46.51964569, 6.56359148, 11, 0.04, 401.4, 2.1, -1.4, 359.1, 2.3, 279, 17
2023-03-30, 11:59:06.046, 723.79, 15.82, 49.21, 400, 1334, 46.51964569, 6.56359339, 11, 0.04, 401.4, 2.1, -1.5, 358.9, 2.5, 285, 17
2023-03-30, 11:59:07.154, 714.00, 15.85, 49.24, 400, 1350, 46.51964569, 6.56359339, 10, 0.03, 401.4, 2.1, -1.3, 358.4, 1.7, 297, 17
2023-03-30, 11:59:08.259, 685.68, 15.82, 49.26, 400, 1338, 46.51964569, 6.56359339, 9, 0.06, 401.4, 2.1, -1.6, 358.3, 1.6, 309, 17
2023-03-30, 11:59:42.118, 171.28, 15.96, 49.44, 400, 1300, 46.51968765, 6.56356287, 11, 0.01, 400.1, 2.5, -0.2, 356.4, 2.0, 271, 17
2023-03-30, 11:59:43.225, 775.20, 15.96, 49.45, 400, 1255, 46.51968765, 6.56356287, 11, 0.00, 400.1, 2.6, -0.1, 356.8, 1.3, 290, 17
2023-03-30, 11:59:44.330, 841.05, 15.96, 49.42, 400, 1298, 46.51968765, 6.56356287, 11, 0.00, 400.1, 2.6, -0.3, 356.2, 1.9, 275, 17
2023-03-30, 11:59:45.434, 851.33, 15.96, 49.40, 400, 1247, 46.51968765, 6.56356287, 11, 0.01, 400.1, 2.5, -0.4, 356.2, 2.0, 283, 17
2023-03-30, 11:59:46.538, 865.94, 15.93, 49.45, 400, 1241, 46.51968765, 6.56356287, 11, 0.02, 400.0, 2.5, -0.4, 356.3, 2.3, 289, 17
2023-03-30, 11:59:47.642, 868.14, 15.92, 49.42, 400, 1247, 46.51968765, 6.56356192, 11, 0.01, 399.6, 2.5, -0.3, 356.2, 2.7, 286, 17
2023-03-30, 11:59:48.746, 870.92, 15.92, 49.38, 400, 1312, 46.51968765, 6.56356192, 11, 0.01, 399.3, 2.5, -0.4, 356.1, 2.5, 307, 17
2023-03-30, 11:59:49.850, 871.65, 15.90, 49.38, 400, 1269, 46.51968765, 6.56356192, 11, 0.01, 399.1, 2.7, -0.3, 356.2, 2.1, 316, 17
2023-03-30, 11:59:50.953, 871.65, 15.92, 49.39, 400, 1306, 46.51968765, 6.56356192, 11, 0.01, 399.0, 2.4, -0.3, 356.7, 2.1, 300, 17
2023-03-30, 11:59:52.059, 873.69, 15.92, 49.37, 400, 1324, 46.51968765, 6.56356192, 11, 0.01, 399.0, 2.7, -0.3, 356.3, 3.0, 300, 17
2023-03-30, 11:59:53.165, 874.43, 15.89, 49.36, 400, 1304, 46.51968765, 6.56356192, 11, 0.01, 399.0, 2.6, -0.3, 356.3, 2.7, 306, 17
2023-03-30, 11:59:54.272, 877.20, 15.89, 49.36, 400, 1308, 46.51968765, 6.56356192, 11, 0.02, 399.0, 2.6, -0.3, 356.2, 2.4, 292, 17
2023-03-30, 11:59:55.378, 877.20, 15.92, 49.37, 400, 1346, 46.51968765, 6.56356192, 11, 0.04, 399.0, 2.7, -0.3, 355.8, 2.6, 287, 17
2023-03-30, 11:59:56.483, 875.16, 15.92, 49.35, 400, 1304, 46.51968765, 6.56356192, 11, 0.04, 399.0, 2.5, -0.3, 356.2, 2.2, 292, 17
2023-03-30, 11:59:57.591, 879.24, 15.89, 49.34, 400, 1291, 46.51968765, 6.56356192, 11, 0.05, 399.0, 2.6, -0.3, 356.7, 2.3, 269, 17
2023-03-30, 11:59:58.697, 882.01, 15.90, 49.38, 400, 1306, 46.51968765, 6.56356192, 11, 0.02, 398.9, 2.5, -0.3, 356.5, 2.7, 295, 17
2023-03-30, 11:59:59.803, 882.01, 15.89, 49.38, 400, 1328, 46.51968765, 6.56356001, 11, 0.01, 398.7, 2.7, -0.3, 356.3, 2.3, 291, 17
2023-03-30, 12:00:00.912, 884.79, 15.89, 49.31, 400, 1300, 46.51968765, 6.56356001, 11, 0.01, 398.6, 2.7, -0.3, 356.5, 2.5, 298, 17
2023-03-30, 12:00:02.018, 886.83, 15.85, 49.35, 400, 1300, 46.51967621, 6.56356192, 11, 0.02, 398.6, 2.6, -0.2, 356.2, 3.0, 289, 17
2023-03-30, 12:00:03.124, 885.52, 15.87, 49.34, 400, 1320, 46.51967621, 6.56356001, 11, 0.01, 398.4, 2.6, -0.3, 355.8, 2.7, 286, 17
2023-03-30, 12:00:04.230, 887.56, 15.86, 49.32, 400, 1285, 46.51967621, 6.56356192, 11, 0.03, 398.1, 2.4, -0.4, 356.1, 2.6, 290, 17
2023-03-30, 12:00:05.338, 886.26, 15.85, 49.37, 400, 1261, 46.51968765, 6.56356192, 11, 0.05, 397.8, 2.7, -0.3, 356.1, 3.1, 298, 17
2023-03-30, 12:00:06.444, 890.34, 15.85, 49.35, 400, 1300, 46.51968765, 6.56356001, 11, 0.05, 397.5, 2.5, -0.3, 355.8, 2.8, 300, 17
2023-03-30, 12:00:07.549, 891.07, 15.85, 49.37, 400, 1304, 46.51967621, 6.56356192, 11, 0.02, 397.3, 2.5, -0.3, 356.3, 2.2, 303, 17
2023-03-30, 12:00:08.656, 895.15, 15.83, 49.34, 400, 1295, 46.51967621, 6.56356001, 11, 0.02, 396.8, 2.6, -0.2, 356.1, 2.4, 289, 17
2023-03-30, 12:00:09.766, 893.85, 15.82, 49.37, 400, 1304, 46.51966858, 6.56356001, 11, 0.05, 396.6, 2.6, -0.3, 355.8, 2.1, 287, 17
2023-03-30, 12:00:10.873, 897.93, 15.83, 49.38, 400, 1295, 46.51966858, 6.56356001, 11, 0.05, 396.5, 2.5, -0.4, 356.4, 2.5, 279, 17
2023-03-30, 12:00:11.980, 898.66, 15.80, 49.41, 400, 1261, 46.51966858, 6.56356192, 11, 0.05, 396.5, 2.6, -0.4, 356.4, 2.4, 278, 17
2023-03-30, 12:00:13.086, 897.36, 15.82, 49.39, 400, 1298, 46.51966858, 6.56356287, 11, 0.06, 396.4, 2.5, -0.2, 355.7, 2.5, 283, 17
2023-03-30, 12:00:14.194, 903.48, 15.80, 49.41, 400, 1289, 46.51966095, 6.56356001, 11, 0.07, 396.2, 2.5, -0.5, 356.1, 2.7, 285, 17
2023-03-30, 12:00:15.327, 904.21, 15.82, 49.39, 400, 1308, 46.51966095, 6.56356001, 11, 0.05, 396.0, 2.6, -0.3, 356.2, 2.7, 283, 17
2023-03-30, 12:00:16.431, 904.94, 15.79, 49.41, 400, 1263, 46.51966095, 6.56355810, 11, 0.05, 395.7, 2.7, -0.2, 356.0, 2.8, 289, 17
2023-03-30, 12:00:17.535, 903.64, 15.77, 49.43, 400, 1291, 46.51966095, 6.56356001, 11, 0.06, 395.4, 2.6, -0.2, 356.6, 4.1, 297, 17
2023-03-30, 12:00:18.639, 907.72, 15.76, 49.41, 400, 1281, 46.51965332, 6.56356192, 11, 0.08, 395.0, 2.4, -0.3, 356.2, 4.0, 301, 17
2023-03-30, 12:00:19.743, 909.76, 15.79, 49.39, 400, 1281, 46.51965332, 6.56355810, 11, 0.07, 394.7, 2.6, -0.2, 356.2, 2.9, 307, 17
2023-03-30, 12:00:20.848, 910.49, 15.75, 49.43, 400, 1257, 46.51965332, 6.56355667, 11, 0.07, 394.5, 2.6, -0.4, 356.3, 2.1, 284, 17
2023-03-30, 12:00:21.951, 911.23, 15.77, 49.47, 400, 1255, 46.51965332, 6.56355476, 11, 0.07, 394.4, 2.5, 0.0, 356.9, 2.3, 254, 17
2023-03-30, 12:00:23.058, 913.27, 15.79, 49.46, 400, 1247, 46.51965332, 6.56355286, 11, 0.07, 394.3, 2.6, -0.4, 356.2, 2.0, 277, 17
2023-03-30, 12:00:24.161, 916.04, 15.80, 49.50, 400, 1235, 46.51964569, 6.56355190, 11, 0.07, 394.0, 2.6, -0.5, 356.3, 1.7, 295, 17
2023-03-30, 12:00:25.265, 916.04, 15.79, 49.48, 400, 1279, 46.51964569, 6.56355190, 11, 0.07, 393.7, 2.5, -0.3, 355.5, 2.3, 300, 17
2023-03-30, 12:00:26.384, 918.08, 15.82, 49.51, 400, 1231, 46.51963806, 6.56355000, 11, 0.09, 393.5, 2.5, -0.3, 356.5, 3.0, 287, 17
2023-03-30, 12:00:27.493, 920.86, 15.77, 49.52, 400, 1259, 46.51963806, 6.56354904, 11, 0.08, 393.3, 2.7, -0.3, 356.7, 2.5, 294, 17
2023-03-30, 12:00:28.599, 921.59, 15.77, 49.52, 400, 1237, 46.51963806, 6.56354904, 11, 0.11, 392.8, 2.6, -0.2, 356.5, 2.4, 296, 17
2023-03-30, 12:00:29.706, 922.32, 15.80, 49.55, 400, 1247, 46.51963043, 6.56354666, 11, 0.06, 392.7, 2.7, -0.2, 356.6, 1.9, 291, 17
2023-03-30, 12:00:30.815, 916.20, 15.80, 49.52, 400, 1233, 46.51963043, 6.56354666, 11, 0.07, 392.5, 2.5, -0.3, 356.2, 1.7, 286, 17
2023-03-30, 12:00:31.920, 907.88, 15.83, 49.52, 400, 1253, 46.51963043, 6.56354475, 11, 0.07, 392.4, 2.7, -0.4, 355.7, 2.4, 285, 17
2023-03-30, 12:00:33.028, 873.45, 15.82, 49.51, 400, 1277, 46.51963043, 6.56354475, 11, 0.06, 392.4, 2.6, -0.3, 356.2, 2.6, 288, 17
2023-03-30, 12:00:34.134, 714.65, 15.79, 49.53, 400, 1275, 46.51963043, 6.56354141, 11, 0.07, 392.4, 2.4, -0.2, 356.3, 2.8, 279, 17
2023-03-30, 12:00:56.003, 680.27, 15.96, 49.83, 400, 1285, 46.51961899, 6.56351328, 11, 0.09, 393.3, 1.6, -0.3, 344.4, 0.7, 250, 17
2023-03-30, 12:00:57.109, 1642.06, 15.96, 49.98, 400, 1376, 46.51961899, 6.56351328, 11, 0.09, 393.4, 1.7, -0.5, 344.5, 1.3, 237, 17
2023-03-30, 12:00:58.215, 1268.72, 15.94, 50.12, 400, 1362, 46.51961136, 6.56351089, 10, 0.09, 393.3, 1.9, -0.5, 344.8, 1.3, 245, 17
2023-03-30, 12:00:59.321, 1285.20, 15.93, 50.21, 400, 1366, 46.51961136, 6.56351328, 11, 0.08, 393.4, 1.9, -0.4, 344.9, 1.1, 243, 17
2023-03-30, 12:01:00.429, 1298.85, 15.94, 50.25, 400, 1273, 46.51961136, 6.56351089, 11, 0.08, 393.4, 1.8, -0.5, 344.3, 0.6, 328, 17
2023-03-30, 12:01:01.536, 1302.28, 15.92, 50.29, 400, 1279, 46.51961136, 6.56351089, 10, 0.07, 393.3, 1.8, -0.4, 344.9, 0.7, 84, 17
2023-03-30, 12:01:02.642, 1310.06, 15.93, 50.21, 400, 1295, 46.51961136, 6.56350994, 10, 0.07, 393.5, 1.7, -0.3, 344.8, 0.4, 105, 17
2023-03-30, 12:01:03.748, 1307.94, 15.94, 50.19, 400, 1312, 46.51960373, 6.56350994, 10, 0.08, 393.6, 1.9, -0.2, 345.3, 1.1, 153, 17
