Date [UTC], Time [UTC], Illuminance [lux], Temperature [°C], Humidity [%], CO2 [ppm], TVOC [ppb], Latitude [°], Longitude [°], Satellites [-], Speed [m/s], Altitude [m], Roll [°], Pitch [°], Heading [°], Wind speed [m/s], Wind angle [°], Wind temp. [°C]
2023-03-30, 11:31:07.191, 245.02, 15.14, 51.14, 472, 9, 46.52095413, 6.56314182, 10, 0.01, 428.8, 0.1, 1.5, 3.0, 0.6, 44, 17
2023-03-30, 11:31:08.295, 245.02, 15.13, 51.15, 463, 16, 46.52095413, 6.56314278, 10, 0.00, 428.8, 0.2, 1.3, 3.1, 0.3, 68, 17
2023-03-30, 11:31:09.399, 231.85, 15.15, 51.17, 444, 12, 46.52095413, 6.56314278, 10, 0.01, 428.9, 0.3, 1.4, 3.0, 0.4, 63, 17
2023-03-30, 11:31:10.504, 235.82, 15.13, 51.26, 429, 1, 46.52095413, 6.56314468, 10, 0.01, 428.9, 0.2, 1.3, 3.3, 0.4, 24, 17
2023-03-30, 11:31:11.612, 240.67, 15.13, 51.25, 417, 0, 46.52095413, 6.56314468, 10, 0.01, 429.0, 0.3, 1.3, 3.2, 0.6, 17, 17
2023-03-30, 11:31:12.718, 244.75, 15.14, 51.27, 420, 0, 46.52094650, 6.56314468, 10, 0.01, 429.0, 0.2, 1.3, 3.0, 0.7, 20, 17
2023-03-30, 11:31:13.827, 244.75, 15.13, 51.23, 418, 2, 46.52094650, 6.56314707, 10, 0.01, 429.0, 0.3, 1.4, 3.2, 0.7, 0, 17
2023-03-30, 11:31:14.934, 245.24, 15.14, 51.20, 411, 0, 46.52094650, 6.56314468, 10, 0.01, 429.1, 0.2, 1.5, 3.6, 0.6, 321, 17
2023-03-30, 11:31:16.042, 247.96, 15.13, 51.18, 422, 0, 46.52094650, 6.56314707, 10, 0.01, 429.1, 0.2, 1.3, 2.5, 0.7, 281, 17
2023-03-30, 11:31:17.148, 247.08, 15.13, 51.14, 410, 0, 46.52094650, 6.56314468, 10, 0.03, 429.1, 0.2, 1.5, 3.5, 0.7, 269, 17
2023-03-30, 11:31:18.256, 247.08, 15.13, 51.13, 411, 2, 46.52094650, 6.56314468, 10, 0.01, 429.1, 0.2, 1.5, 3.4, 0.9, 269, 17
2023-03-30, 11:31:19.363, 248.44, 15.13, 51.12, 401, 1, 46.52094650, 6.56314278, 10, 0.03, 429.1, 0.2, 1.4, 3.2, 1.2, 285, 17
2023-03-30, 11:31:20.469, 249.80, 15.11, 51.09, 408, 0, 46.52094650, 6.56314278, 10, 0.03, 429.1, 0.2, 1.3, 2.9, 1.1, 293, 17
2023-03-30, 11:31:21.575, 248.93, 15.14, 51.12, 404, 5, 46.52094650, 6.56314278, 10, 0.02, 429.1, 0.2, 1.4, 3.0, 1.3, 281, 17
2023-03-30, 11:31:22.680, 250.29, 15.09, 51.08, 400, 0, 46.52094650, 6.56314278, 10, 0.02, 429.1, 0.0, -3.0, 2.9, 1.7, 281, 17
2023-03-30, 11:31:23.788, 251.65, 15.10, 51.03, 400, 0, 46.52094650, 6.56314468, 10, 0.01, 429.1, 0.2, 1.2, 3.2, 2.1, 275, 17
2023-03-30, 11:31:24.895, 251.65, 15.10, 51.04, 400, 0, 46.52094650, 6.56314468, 10, 0.01, 429.1, 0.2, 1.4, 3.1, 1.8, 288, 17
2023-03-30, 11:31:26.031, 250.78, 15.09, 51.02, 400, 0, 46.52094650, 6.56314707, 10, 0.01, 429.1, 0.2, 1.1, 3.4, 1.3, 269, 17
2023-03-30, 11:31:27.135, 252.14, 15.10, 51.03, 425, 7, 46.52094650, 6.56314278, 10, 0.03, 429.0, 0.3, 1.1, 2.8, 1.4, 294, 17
2023-03-30, 11:31:28.240, 253.50, 15.11, 50.97, 432, 5, 46.52094650, 6.56314278, 10, 0.03, 429.0, 0.2, 1.2, 3.2, 1.4, 291, 17
2023-03-30, 11:31:29.346, 253.50, 15.09, 50.96, 422, 3, 46.52094650, 6.56314182, 10, 0.04, 429.0, 0.2, 1.3, 2.9, 1.2, 272, 17
2023-03-30, 11:31:30.453, 253.50, 15.11, 50.93, 430, 2, 46.52094650, 6.56313801, 10, 0.09, 429.0, 0.1, 1.2, 3.4, 1.1, 269, 17
2023-03-30, 11:31:31.560, 253.50, 15.10, 50.92, 406, 0, 46.52094650, 6.56313801, 10, 0.07, 428.9, 0.1, 1.5, 3.4, 1.6, 282, 17
2023-03-30, 11:31:32.669, 252.63, 15.10, 50.90, 403, 2, 46.52094650, 6.56313801, 10, 0.04, 428.8, 0.2, 1.1, 2.8, 1.9, 287, 17
2023-03-30, 11:31:33.775, 255.35, 15.07, 50.94, 414, 0, 46.52094650, 6.56313801, 10, 0.05, 428.8, 0.2, 1.1, 3.2, 1.7, 279, 17
2023-03-30, 11:31:34.881, 254.48, 15.06, 50.90, 426, 5, 46.52094650, 6.56313801, 10, 0.04, 428.8, 0.2, 1.2, 3.2, 1.3, 269, 17
2023-03-30, 11:31:35.987, 256.71, 15.09, 50.89, 411, 5, 46.52094650, 6.56313801, 10, 0.04, 428.8, 0.2, 1.1, 3.4, 1.1, 269, 17
2023-03-30, 11:31:37.094, 255.84, 15.07, 50.87, 413, 7, 46.52094650, 6.56313705, 10, 0.05, 428.7, 0.1, 1.1, 3.2, 1.3, 269, 17
2023-03-30, 11:31:38.196, 255.84, 15.10, 50.90, 419, 7, 46.52095413, 6.56313181, 10, 0.11, 428.7, 0.2, 1.3, 3.4, 1.4, 278, 17
2023-03-30, 11:31:39.301, 257.20, 15.10, 50.86, 416, 0, 46.52095413, 6.56313705, 10, 0.05, 428.7, 0.2, 1.3, 2.5, 1.3, 284, 17
2023-03-30, 11:31:40.404, 254.97, 15.07, 50.90, 422, 0, 46.52095413, 6.56313801, 10, 0.04, 428.6, 0.2, 1.4, 3.2, 0.6, 289, 17
2023-03-30, 11:31:41.510, 256.33, 15.09, 50.86, 410, 13, 46.52095413, 6.56313801, 10, 0.05, 428.6, 0.2, 1.3, 3.0, 1.1, 263, 17
2023-03-30, 11:31:42.614, 256.33, 15.10, 50.84, 405, 0, 46.52095413, 6.56313705, 10, 0.07, 428.5, 0.2, 1.2, 2.9, 1.1, 269, 17
2023-03-30, 11:31:43.718, 257.69, 15.10, 50.88, 400, 0, 46.52095413, 6.56313467, 10, 0.07, 428.5, 0.1, 1.3, 3.1, 1.1, 276, 17
2023-03-30, 11:31:44.822, 257.69, 15.09, 50.85, 410, 4, 46.52096176, 6.56313372, 10, 0.09, 428.6, 0.2, 1.5, 3.2, 0.8, 274, 17
2023-03-30, 11:31:45.930, 257.69, 15.11, 50.89, 410, 5, 46.52096176, 6.56313372, 10, 0.09, 428.6, 0.2, 1.3, 3.2, 0.8, 265, 17
2023-03-30, 11:31:47.037, 259.05, 15.10, 50.83, 417, 6, 46.52096176, 6.56313181, 10, 0.09, 428.6, 0.3, 1.2, 3.4, 0.7, 274, 17
2023-03-30, 11:31:48.144, 256.82, 15.10, 50.90, 421, 9, 46.52096176, 6.56313467, 10, 0.06, 428.5, 0.2, 1.5, 3.4, 0.6, 295, 17
2023-03-30, 11:31:49.250, 256.82, 15.11, 50.84, 419, 9, 46.52096176, 6.56313372, 10, 0.09, 428.5, 0.3, 1.1, 3.1, 0.6, 289, 17
2023-03-30, 11:31:50.359, 256.82, 15.10, 50.90, 406, 4, 46.52097321, 6.56313467, 10, 0.10, 428.6, 0.3, 1.5, 3.3, 0.5, 291, 17
2023-03-30, 11:31:51.466, 256.82, 15.13, 50.92, 422, 5, 46.52097321, 6.56313372, 10, 0.10, 428.6, 0.2, 1.5, 3.1, 0.7, 291, 17
2023-03-30, 11:31:52.574, 259.05, 15.11, 50.89, 413, 0, 46.52097321, 6.56313705, 10, 0.07, 428.6, 0.0, -3.1, 3.7, 0.6, 308, 17
2023-03-30, 11:31:53.680, 259.05, 15.11, 50.88, 406, 0, 46.52098083, 6.56312847, 10, 0.14, 428.4, 0.3, 1.3, 3.1, 0.6, 300, 17
2023-03-30, 11:31:54.788, 258.18, 15.10, 50.93, 405, 6, 46.52098083, 6.56312466, 10, 0.16, 428.4, 0.2, 1.3, 3.6, 0.4, 305, 17
2023-03-30, 11:31:55.893, 258.18, 15.11, 50.85, 408, 2, 46.52098083, 6.56312466, 10, 0.17, 428.4, 0.3, 1.4, 3.4, 0.7, 331, 17
2023-03-30, 11:31:57.001, 258.18, 15.09, 50.85, 400, 6, 46.52098846, 6.56312370, 10, 0.17, 428.3, 0.1, 1.3, 3.2, 1.2, 319, 17
2023-03-30, 11:31:58.106, 259.54, 15.11, 50.89, 400, 0, 46.52098846, 6.56312466, 10, 0.15, 428.2, 0.1, 1.6, 3.0, 0.8, 326, 17
2023-03-30, 11:31:59.214, 259.54, 15.13, 50.90, 400, 1, 46.52098846, 6.56312656, 10, 0.14, 428.1, 0.2, 1.5, 3.0, 0.7, 341, 17
2023-03-30, 11:32:00.320, 258.18, 15.13, 50.86, 409, 0, 46.52098846, 6.56313181, 10, 0.11, 428.0, 0.3, 1.3, 3.2, 0.6, 354, 17
2023-03-30, 11:32:01.426, 256.82, 15.11, 50.85, 400, 0, 46.52098846, 6.56313705, 9, 0.10, 427.9, 0.2, 1.3, 3.3, 0.5, 39, 17
2023-03-30, 11:32:02.533, 258.67, 15.14, 50.85, 402, 0, 46.52098846, 6.56313801, 10, 0.10, 427.9, 0.2, 1.3, 3.0, 0.8, 38, 17
2023-03-30, 11:32:03.638, 259.16, 15.13, 50.87, 416, 0, 46.52098846, 6.56313801, 10, 0.14, 427.9, 0.2, 1.3, 3.6, 0.6, 65, 17
2023-03-30, 11:32:04.746, 257.31, 15.13, 50.84, 417, 3, 46.52098846, 6.56313992, 9, 0.11, 427.9, 0.3, 1.3, 4.0, 0.3, 89, 17
2023-03-30, 11:32:32.381, 198.56, 15.24, 51.05, 419, 7, 46.52097321, 6.56316137, 10, 0.11, 428.8, 0.3, 0.5, 4.3, 0.1, 305, 17
2023-03-30, 11:32:33.488, 198.56, 15.24, 51.00, 425, 10, 46.52097321, 6.56316137, 10, 0.16, 428.8, 0.6, 0.4, 4.6, 0.7, 269, 17
2023-03-30, 11:32:34.597, 199.05, 15.22, 51.04, 422, 5, 46.52096176, 6.56315804, 10, 0.13, 428.8, 0.6, 0.6, 5.2, 1.5, 260, 17
2023-03-30, 11:32:35.703, 199.54, 15.24, 51.05, 427, 16, 46.52095413, 6.56315613, 10, 0.10, 428.8, 0.4, 0.5, 4.7, 1.8, 262, 17
2023-03-30, 11:32:36.810, 203.13, 15.22, 51.05, 410, 5, 46.52095413, 6.56315613, 10, 0.10, 428.8, 0.2, 0.9, 4.9, 1.0, 280, 17
2023-03-30, 11:32:37.916, 204.49, 15.21, 51.04, 422, 2, 46.52094650, 6.56315517, 10, 0.12, 428.8, 0.0, -3.7, 4.7, 2.0, 276, 17
2023-03-30, 11:32:39.024, 203.13, 15.24, 50.98, 401, 5, 46.52094650, 6.56315613, 10, 0.09, 428.8, 0.3, 0.5, 4.9, 1.6, 267, 17
2023-03-30, 11:32:40.584, 202.26, 15.21, 51.02, 404, 1, 46.52095413, 6.56315231, 10, 0.28, 428.7, 0.4, 0.6, 4.4, 0.9, 278, 17
2023-03-30, 11:32:42.545, 203.13, 15.21, 50.96, 400, 0, 46.52094650, 6.56315517, 10, 0.17, 428.7, 0.3, 0.5, 4.4, 0.7, 265, 17
2023-03-30, 11:32:43.646, 203.13, 15.20, 50.98, 407, 3, 46.52093887, 6.56315517, 10, 0.26, 428.6, 0.3, 0.5, 4.6, 1.0, 263, 17
2023-03-30, 11:32:44.749, 203.13, 15.20, 50.94, 401, 0, 46.52093887, 6.56315231, 10, 0.11, 428.5, 0.3, 0.5, 4.9, 0.9, 269, 17
2023-03-30, 11:32:45.852, 203.13, 15.21, 50.91, 401, 0, 46.52093124, 6.56314802, 10, 0.11, 428.5, 0.3, 0.6, 5.1, 0.7, 264, 17
2023-03-30, 11:32:46.956, 201.77, 15.22, 50.87, 400, 0, 46.52093124, 6.56314707, 10, 0.06, 428.5, 0.0, -3.9, 4.8, 0.3, 281, 17
2023-03-30, 11:32:48.061, 201.77, 15.21, 50.91, 400, 0, 46.52093887, 6.56314707, 10, 0.07, 428.5, 0.4, 0.4, 4.7, 0.2, 269, 17
2023-03-30, 11:32:49.169, 201.77, 15.21, 50.85, 404, 10, 46.52093124, 6.56315231, 10, 0.32, 428.4, 0.2, 0.6, 4.7, 0.3, 281, 17
2023-03-30, 11:32:50.276, 201.77, 15.20, 50.88, 400, 0, 46.52093124, 6.56314993, 10, 0.25, 428.4, 0.3, 0.6, 4.6, 0.3, 310, 17
2023-03-30, 11:32:51.381, 201.77, 15.22, 50.82, 404, 0, 46.52093124, 6.56314468, 10, 0.06, 428.3, 0.2, 0.8, 4.7, 0.4, 317, 17
2023-03-30, 11:32:52.486, 200.41, 15.24, 50.82, 400, 1, 46.52093124, 6.56314278, 10, 0.08, 428.3, 0.3, 0.5, 4.1, 0.3, 325, 17
2023-03-30, 11:32:53.595, 200.41, 15.22, 50.82, 407, 2, 46.52093124, 6.56313992, 10, 0.05, 428.2, 0.4, 0.6, 4.7, 0.1, 289, 17
2023-03-30, 11:32:54.700, 200.41, 15.21, 50.77, 404, 1, 46.52092361, 6.56313801, 10, 0.09, 428.3, 0.3, 0.6, 4.3, 0.4, 259, 17
2023-03-30, 11:32:55.807, 200.41, 15.24, 50.77, 414, 7, 46.52093124, 6.56313705, 10, 0.25, 428.3, 0.5, 0.6, 4.9, 0.4, 252, 17
2023-03-30, 11:32:56.914, 201.28, 15.24, 50.79, 400, 0, 46.52093124, 6.56313705, 10, 0.19, 428.3, 0.4, 0.6, 4.8, 0.6, 259, 17
2023-03-30, 11:32:58.023, 202.64, 15.22, 50.74, 413, 11, 46.52093124, 6.56313801, 10, 0.12, 428.3, 0.3, 0.5, 4.4, 1.0, 263, 17
2023-03-30, 11:32:59.130, 202.64, 15.22, 50.72, 400, 8, 46.52093124, 6.56313801, 10, 0.10, 428.3, 0.0, -3.7, 4.5, 1.0, 278, 17
2023-03-30, 11:33:00.236, 201.28, 15.24, 50.75, 400, 0, 46.52093124, 6.56313992, 10, 0.21, 428.3, 0.4, 0.6, 5.0, 0.7, 281, 17
2023-03-30, 11:33:01.341, 201.28, 15.21, 50.74, 404, 3, 46.52093124, 6.56313992, 10, 0.21, 428.3, 0.2, 0.8, 4.7, 0.9, 269, 17
2023-03-30, 11:33:02.450, 201.28, 15.22, 50.71, 410, 14, 46.52092361, 6.56314182, 10, 0.49, 428.3, 0.4, 0.5, 4.6, 1.0, 269, 17
2023-03-30, 11:33:03.555, 201.28, 15.22, 50.75, 408, 11, 46.52092361, 6.56313992, 10, 0.26, 428.2, 0.3, 0.7, 4.4, 1.1, 266, 17
2023-03-30, 11:33:04.660, 201.28, 15.22, 50.74, 400, 7, 46.52090836, 6.56313705, 10, 0.33, 428.0, 0.0, -3.8, 4.9, 1.1, 260, 17
2023-03-30, 11:33:05.768, 201.28, 15.21, 50.74, 400, 4, 46.52090836, 6.56313181, 10, 0.24, 427.9, 0.3, 0.5, 4.8, 1.3, 258, 17
2023-03-30, 11:33:06.874, 199.92, 15.25, 50.74, 400, 5, 46.52089691, 6.56312847, 10, 0.23, 427.8, 0.4, 0.4, 5.1, 1.2, 261, 17
2023-03-30, 11:33:07.982, 199.92, 15.18, 50.72, 405, 8, 46.52089691, 6.56312656, 10, 0.18, 427.7, 0.4, 0.5, 5.1, 1.4, 269, 17
2023-03-30, 11:33:09.088, 199.92, 15.24, 50.74, 400, 10, 46.52088928, 6.56312180, 10, 0.25, 427.7, 0.4, 0.6, 5.1, 0.9, 273, 17
2023-03-30, 11:33:10.195, 199.92, 15.24, 50.70, 400, 0, 46.52088928, 6.56312037, 10, 0.16, 427.7, 0.3, 0.4, 4.8, 0.6, 264, 17
2023-03-30, 11:33:11.302, 199.92, 15.22, 50.65, 408, 5, 46.52088928, 6.56312180, 10, 0.28, 427.7, 0.3, 0.6, 4.6, 0.6, 264, 17
2023-03-30, 11:33:12.409, 199.92, 15.24, 50.69, 400, 9, 46.52088928, 6.56312037, 10, 0.15, 427.7, 0.4, 0.4, 4.8, 0.5, 284, 17
2023-03-30, 11:33:13.515, 199.92, 15.24, 50.69, 400, 5, 46.52088928, 6.56312037, 10, 0.17, 427.7, 0.4, 0.5, 4.6, 0.5, 276, 17
2023-03-30, 11:33:14.621, 199.92, 15.24, 50.70, 400, 3, 46.52088165, 6.56311846, 10, 0.06, 427.7, 0.4, 0.6, 4.7, 0.2, 269, 17
2023-03-30, 11:33:15.725, 199.92, 15.25, 50.70, 400, 0, 46.52088165, 6.56311846, 10, 0.15, 427.7, 0.2, 0.5, 4.9, 0.3, 181, 17
2023-03-30, 11:33:16.829, 199.92, 15.25, 50.69, 417, 18, 46.52088928, 6.56312037, 10, 0.12, 427.7, 0.4, 0.5, 4.5, 0.3, 151, 17
2023-03-30, 11:33:17.932, 199.92, 15.25, 50.69, 400, 4, 46.52088928, 6.56312180, 10, 0.04, 427.7, 0.3, 0.6, 4.7, 0.3, 100, 17
2023-03-30, 11:33:19.038, 199.92, 15.25, 50.66, 400, 3, 46.52088928, 6.56312180, 10, 0.03, 427.7, 0.3, 0.5, 4.4, 0.5, 89, 17
2023-03-30, 11:33:20.143, 199.92, 15.27, 50.66, 400, 6, 46.52088165, 6.56312180, 10, 0.21, 427.7, 0.3, 0.5, 4.4, 0.9, 63, 17
2023-03-30, 11:33:21.248, 199.92, 15.24, 50.64, 400, 0, 46.52088165, 6.56311846, 10, 0.30, 427.7, 0.3, 0.6, 4.6, 1.1, 72, 17
2023-03-30, 11:33:22.351, 199.92, 15.25, 50.68, 400, 0, 46.52088165, 6.56311321, 10, 0.12, 427.5, 0.2, 0.7, 4.7, 0.8, 56, 17
2023-03-30, 11:33:23.455, 199.92, 15.25, 50.69, 400, 4, 46.52088165, 6.56311321, 10, 0.17, 427.4, 0.3, 0.5, 4.5, 0.8, 76, 17
2023-03-30, 11:33:24.562, 199.92, 15.25, 50.65, 400, 3, 46.52088165, 6.56311560, 10, 0.11, 427.4, 0.2, 0.7, 4.9, 0.7, 83, 17
2023-03-30, 11:33:25.668, 199.92, 15.25, 50.71, 400, 7, 46.52087402, 6.56311655, 10, 0.25, 427.4, 0.4, 0.6, 4.5, 0.6, 65, 17
2023-03-30, 11:33:26.774, 199.92, 15.25, 50.74, 400, 0, 46.52087402, 6.56312037, 10, 0.11, 427.4, 0.2, 0.6, 4.7, 0.7, 69, 17
2023-03-30, 11:33:27.882, 199.92, 15.24, 50.75, 400, 4, 46.52087402, 6.56312180, 10, 0.08, 427.4, 0.0, -3.6, 4.6, 1.1, 69, 17
2023-03-30, 11:33:28.988, 199.92, 15.24, 50.74, 400, 0, 46.52087402, 6.56312180, 10, 0.12, 427.4, 0.2, 0.6, 4.8, 1.8, 98, 17
2023-03-30, 11:33:30.095, 199.92, 15.22, 50.77, 400, 1, 46.52087402, 6.56312180, 10, 0.18, 427.4, 0.0, -3.8, 4.4, 1.5, 64, 17
2023-03-30, 11:33:31.236, 199.92, 15.25, 50.78, 400, 0, 46.52087402, 6.56312466, 10, 0.20, 427.4, 0.3, 0.5, 4.4, 0.9, 77, 17
2023-03-30, 11:33:32.340, 199.92, 15.24, 50.77, 400, 0, 46.52087402, 6.56312656, 10, 0.07, 427.4, 0.4, 0.5, 4.8, 1.2, 77, 17
2023-03-30, 11:33:33.444, 199.92, 15.25, 50.79, 400, 0, 46.52087402, 6.56312656, 10, 0.07, 427.5, 0.2, 0.3, 4.8, 1.6, 50, 17
2023-03-30, 11:33:34.548, 199.92, 15.22, 50.77, 400, 3, 46.52087402, 6.56312847, 10, 0.21, 427.5, 0.0, -3.9, 5.0, 0.8, 69, 17
2023-03-30, 11:33:35.655, 198.56, 15.21, 50.84, 400, 10, 46.52086639, 6.56312656, 10, 0.25, 427.5, 0.0, -3.9, 4.6, 1.0, 66, 17
2023-03-30, 11:33:36.760, 198.56, 15.22, 50.79, 400, 2, 46.52086639, 6.56312656, 10, 0.26, 427.5, 0.2, 0.5, 4.7, 0.9, 23, 17
2023-03-30, 11:33:37.868, 198.56, 15.24, 50.83, 400, 10, 46.52086639, 6.56312370, 10, 0.17, 427.4, 0.4, 0.3, 4.4, 0.7, 22, 17
2023-03-30, 11:33:38.974, 198.56, 15.24, 50.79, 400, 1, 46.52086639, 6.56312180, 10, 0.16, 427.3, 0.3, 0.5, 4.5, 0.5, 44, 17
2023-03-30, 11:33:40.081, 200.79, 15.25, 50.79, 400, 6, 46.52085876, 6.56312180, 10, 0.26, 427.3, 0.4, 0.4, 4.6, 0.9, 55, 17
2023-03-30, 11:33:41.188, 200.79, 15.27, 50.86, 400, 2, 46.52085876, 6.56311846, 10, 0.04, 427.1, 0.3, 0.3, 5.0, 0.7, 32, 17
2023-03-30, 11:33:42.292, 200.79, 15.24, 50.84, 400, 3, 46.52085876, 6.56311846, 9, 0.13, 427.1, 0.3, 0.4, 4.8, 0.6, 13, 17
2023-03-30, 11:33:43.399, 200.79, 15.24, 50.86, 400, 0, 46.52085876, 6.56311655, 9, 0.12, 427.1, 0.3, 0.3, 4.7, 0.1, 89, 17
2023-03-30, 11:33:44.506, 200.79, 15.22, 50.86, 400, 1, 46.52085876, 6.56312037, 9, 0.26, 427.0, 0.4, 0.4, 4.4, 0.6, 40, 16
2023-03-30, 11:33:45.611, 200.79, 15.24, 50.87, 400, 2, 46.52085876, 6.56311655, 9, 0.31, 426.9, 0.3, 0.5, 4.3, 0.7, 51, 16
2023-03-30, 11:33:46.720, 199.43, 15.25, 50.88, 400, 2, 46.52085114, 6.56312037, 9, 0.24, 426.8, 0.3, 0.4, 4.8, 0.6, 27, 17
2023-03-30, 11:33:47.826, 198.07, 15.24, 50.93, 400, 0, 46.52085876, 6.56311846, 10, 0.03, 426.7, 0.2, 0.5, 4.9, 0.7, 0, 17
2023-03-30, 11:34:26.470, 242.19, 15.35, 50.93, 400, 2, 46.52090836, 6.56312847, 10, 0.04, 427.2, 0.0, -0.5, 4.1, 0.4, 289, 16
2023-03-30, 11:34:27.577, 242.19, 15.34, 50.93, 400, 0, 46.52091599, 6.56312943, 10, 0.03, 427.3, 0.0, -0.4, 4.3, 0.5, 269, 16
2023-03-30, 11:34:28.683, 242.19, 15.35, 50.90, 400, 8, 46.52091599, 6.56312847, 10, 0.08, 427.3, 0.2, -0.2, 4.0, 0.5, 284, 16
2023-03-30, 11:34:29.788, 242.19, 15.35, 50.91, 400, 7, 46.52091599, 6.56312847, 10, 0.09, 427.4, 0.4, -0.3, 4.3, 0.4, 269, 16
2023-03-30, 11:34:30.891, 242.19, 15.34, 50.91, 400, 4, 46.52091599, 6.56312847, 10, 0.16, 427.3, 0.3, -0.5, 4.1, 0.6, 269, 16
2023-03-30, 11:34:31.994, 244.42, 15.33, 50.92, 400, 5, 46.52091599, 6.56312847, 10, 0.17, 427.4, 0.3, -0.5, 4.5, 0.6, 276, 16
2023-03-30, 11:34:33.099, 243.06, 15.37, 50.93, 400, 5, 46.52091599, 6.56312943, 10, 0.12, 427.4, 0.3, -0.5, 3.9, 0.9, 269, 16
2023-03-30, 11:34:34.202, 241.70, 15.33, 50.89, 400, 0, 46.52091599, 6.56313467, 10, 0.19, 427.5, 0.2, -0.4, 4.2, 0.8, 287, 16
2023-03-30, 11:34:35.305, 241.70, 15.34, 50.83, 400, 1, 46.52091599, 6.56313705, 10, 0.10, 427.6, 0.2, -0.5, 3.8, 0.9, 269, 16
2023-03-30, 11:34:36.408, 240.34, 15.35, 50.80, 400, 8, 46.52092361, 6.56313705, 10, 0.17, 427.7, 0.2, -0.3, 4.6, 0.7, 285, 16
2023-03-30, 11:34:37.512, 240.34, 15.33, 50.80, 400, 4, 46.52091599, 6.56313705, 10, 0.34, 427.8, 0.4, -0.4, 4.6, 0.6, 295, 16
2023-03-30, 11:34:38.617, 241.21, 15.31, 50.80, 400, 0, 46.52091599, 6.56313992, 10, 0.14, 427.9, 0.4, -0.5, 4.5, 0.5, 291, 16
2023-03-30, 11:34:39.724, 241.21, 15.31, 50.80, 400, 2, 46.52092361, 6.56314182, 10, 0.09, 428.0, 0.3, -0.4, 4.6, 0.4, 298, 16
2023-03-30, 11:34:40.829, 239.85, 15.33, 50.79, 400, 0, 46.52092361, 6.56314278, 10, 0.12, 428.1, 0.3, -0.3, 4.7, 0.3, 310, 16
2023-03-30, 11:34:41.936, 239.85, 15.33, 50.84, 400, 4, 46.52092361, 6.56314278, 10, 0.11, 428.1, 0.2, -0.3, 4.6, 0.3, 279, 16
2023-03-30, 11:34:43.043, 238.49, 15.33, 50.76, 400, 0, 46.52092361, 6.56314182, 10, 0.14, 428.1, 0.2, -0.4, 4.9, 0.3, 259, 16
2023-03-30, 11:34:44.150, 240.72, 15.34, 50.76, 400, 5, 46.52093124, 6.56314182, 10, 0.25, 428.1, 0.0, -4.7, 4.6, 0.3, 256, 16
2023-03-30, 11:34:45.256, 239.36, 15.35, 50.78, 400, 2, 46.52093124, 6.56314278, 10, 0.25, 428.1, 0.0, -4.8, 4.5, 0.4, 259, 16
2023-03-30, 11:34:46.362, 239.36, 15.35, 50.74, 400, 0, 46.52093124, 6.56314468, 10, 0.19, 428.2, 0.2, -0.4, 3.9, 0.3, 269, 16
2023-03-30, 11:34:47.466, 238.00, 15.31, 50.72, 400, 0, 46.52093887, 6.56314802, 10, 0.21, 428.2, 0.2, -0.3, 4.0, 0.4, 254, 16
2023-03-30, 11:34:48.572, 236.64, 15.33, 50.72, 400, 0, 46.52093124, 6.56314993, 10, 0.11, 428.2, 0.2, -0.4, 4.3, 0.4, 269, 16
2023-03-30, 11:34:49.677, 238.87, 15.31, 50.70, 400, 7, 46.52093887, 6.56315231, 10, 0.08, 428.2, 0.3, -0.5, 4.4, 0.2, 284, 16
2023-03-30, 11:34:50.782, 237.51, 15.34, 50.70, 400, 0, 46.52093887, 6.56314802, 10, 0.11, 428.2, 0.4, -0.4, 4.5, 0.2, 305, 16
2023-03-30, 11:34:51.888, 237.51, 15.31, 50.72, 400, 3, 46.52093887, 6.56314802, 10, 0.04, 428.1, 0.2, -0.5, 3.7, 0.5, 0, 16
2023-03-30, 11:34:52.994, 236.15, 15.31, 50.70, 400, 4, 46.52093887, 6.56314802, 10, 0.02, 428.1, 0.3, -0.4, 4.6, 0.8, 21, 16
2023-03-30, 11:34:54.102, 236.15, 15.30, 50.68, 400, 13, 46.52093887, 6.56314707, 10, 0.03, 428.0, 0.2, -0.4, 4.4, 1.1, 19, 16
2023-03-30, 11:34:55.208, 237.02, 15.33, 50.66, 400, 0, 46.52093887, 6.56314707, 10, 0.04, 427.9, 0.2, -0.3, 4.3, 0.8, 41, 16
2023-03-30, 11:34:56.313, 235.66, 15.31, 50.64, 400, 3, 46.52093124, 6.56314468, 10, 0.09, 427.8, 0.3, -0.3, 4.0, 0.8, 103, 16
2023-03-30, 11:34:57.446, 235.66, 15.33, 50.63, 400, 0, 46.52093124, 6.56314182, 10, 0.18, 427.7, 0.2, -0.3, 4.5, 0.3, 134, 16
2023-03-30, 11:34:58.549, 234.30, 15.33, 50.63, 400, 7, 46.52093124, 6.56313705, 10, 0.27, 427.5, 0.2, -0.2, 4.1, 0.6, 252, 16
2023-03-30, 11:34:59.653, 234.30, 15.30, 50.60, 400, 0, 46.52093124, 6.56312943, 10, 0.23, 427.3, 0.2, -0.4, 4.5, 0.8, 245, 16
2023-03-30, 11:35:00.760, 235.17, 15.31, 50.62, 400, 0, 46.52093124, 6.56313181, 10, 0.07, 427.2, 0.2, -0.3, 4.4, 0.8, 248, 16
2023-03-30, 11:35:01.867, 235.17, 15.34, 50.66, 400, 0, 46.52093887, 6.56313181, 10, 0.14, 427.2, 0.2, -0.4, 4.6, 1.0, 255, 16
2023-03-30, 11:35:02.973, 233.81, 15.33, 50.63, 400, 5, 46.52093887, 6.56313181, 10, 0.11, 427.2, 0.4, -0.3, 4.3, 0.9, 253, 16
2023-03-30, 11:35:04.079, 236.04, 15.31, 50.61, 400, 0, 46.52093887, 6.56313181, 10, 0.06, 427.1, 0.3, -0.4, 4.3, 0.8, 262, 16
2023-03-30, 11:35:05.185, 232.45, 15.31, 50.63, 400, 11, 46.52093887, 6.56313181, 10, 0.05, 427.1, 0.0, -4.7, 4.6, 1.3, 269, 16
2023-03-30, 11:35:06.287, 233.32, 15.31, 50.61, 400, 0, 46.52093887, 6.56313181, 10, 0.14, 427.1, 0.2, -0.3, 4.7, 1.1, 266, 16
2023-03-30, 11:35:07.391, 233.32, 15.31, 50.66, 400, 3, 46.52093887, 6.56313372, 10, 0.13, 427.1, 0.2, -0.4, 4.4, 1.2, 279, 16
2023-03-30, 11:35:08.494, 231.96, 15.31, 50.62, 400, 7, 46.52093887, 6.56313372, 10, 0.13, 427.1, 0.2, -0.2, 4.2, 1.3, 281, 16
2023-03-30, 11:35:09.599, 231.96, 15.30, 50.64, 400, 1, 46.52093887, 6.56313467, 10, 0.16, 427.1, 0.3, -0.5, 4.4, 1.4, 278, 16
2023-03-30, 11:35:10.703, 230.60, 15.27, 50.59, 400, 5, 46.52093887, 6.56313467, 10, 0.12, 427.1, 0.4, -0.2, 3.6, 1.3, 276, 16
2023-03-30, 11:35:11.806, 230.60, 15.30, 50.60, 400, 4, 46.52093887, 6.56313705, 10, 0.11, 427.1, 0.3, -0.4, 3.5, 1.4, 274, 16
2023-03-30, 11:35:12.910, 231.47, 15.31, 50.66, 400, 0, 46.52093887, 6.56313801, 10, 0.02, 427.1, 0.2, -0.1, 3.9, 2.1, 275, 16
2023-03-30, 11:35:14.019, 231.47, 15.28, 50.61, 400, 0, 46.52093887, 6.56313705, 10, 0.02, 427.1, 0.0, -4.5, 4.1, 1.8, 290, 16
2023-03-30, 11:35:15.124, 230.11, 15.28, 50.60, 400, 0, 46.52093887, 6.56313705, 10, 0.09, 427.1, 0.2, -0.4, 3.8, 1.6, 281, 16
2023-03-30, 11:35:16.231, 228.75, 15.30, 50.58, 400, 1, 46.52093887, 6.56313705, 10, 0.15, 427.2, 0.2, -0.2, 4.5, 0.9, 281, 16
2023-03-30, 11:35:17.337, 228.75, 15.30, 50.62, 400, 1, 46.52093887, 6.56314182, 10, 0.19, 427.3, 0.3, -0.4, 4.3, 0.7, 285, 16
2023-03-30, 11:35:18.445, 229.62, 15.28, 50.60, 400, 1, 46.52093887, 6.56314468, 10, 0.30, 427.4, 0.3, -0.4, 4.4, 0.1, 269, 16
2023-03-30, 11:35:19.552, 228.26, 15.28, 50.59, 400, 0, 46.52093887, 6.56314802, 10, 0.17, 427.5, 0.2, -0.5, 4.5, 0.4, 89, 16
2023-03-30, 11:35:20.659, 228.26, 15.27, 50.57, 400, 1, 46.52093887, 6.56314993, 10, 0.13, 427.5, 0.2, -0.3, 4.2, 0.6, 73, 16
2023-03-30, 11:35:21.765, 226.90, 15.27, 50.59, 400, 6, 46.52093124, 6.56314993, 10, 0.09, 427.5, 0.3, -0.4, 4.3, 1.6, 3, 16
2023-03-30, 11:35:22.873, 226.90, 15.28, 50.52, 400, 7, 46.52093124, 6.56315231, 10, 0.13, 427.6, 0.3, -0.5, 4.0, 1.2, 10, 16
2023-03-30, 11:35:23.979, 227.77, 15.31, 50.53, 400, 2, 46.52093124, 6.56315327, 10, 0.09, 427.6, 0.4, -0.5, 4.1, 0.6, 313, 16
2023-03-30, 11:35:25.086, 226.41, 15.30, 50.54, 400, 1, 46.52093124, 6.56315327, 10, 0.10, 427.7, 0.3, -0.5, 4.4, 0.1, 305, 16
2023-03-30, 11:35:26.191, 226.41, 15.31, 50.55, 400, 0, 46.52092361, 6.56315517, 9, 0.32, 427.8, 0.3, -0.3, 4.3, 0.6, 339, 16
2023-03-30, 11:35:27.299, 223.69, 15.27, 50.53, 400, 0, 46.52092361, 6.56315613, 9, 0.27, 427.9, 0.2, -0.4, 4.6, 0.8, 314, 16
2023-03-30, 11:35:49.242, 257.04, 15.33, 50.48, 400, 14, 46.52094650, 6.56317949, 10, 0.01, 426.7, 0.0, -2.0, 0.6, 0.6, 341, 16
2023-03-30, 11:35:50.348, 257.91, 15.33, 50.46, 400, 10, 46.52094650, 6.56317949, 10, 0.01, 426.7, -0.1, -2.2, 1.1, 0.9, 325, 16
2023-03-30, 11:35:51.453, 256.55, 15.33, 50.42, 400, 9, 46.52094650, 6.56317949, 10, 0.02, 426.7, 0.1, -2.0, 1.0, 0.5, 312, 16
2023-03-30, 11:35:52.561, 256.55, 15.34, 50.47, 400, 12, 46.52094650, 6.56317949, 10, 0.03, 426.7, 0.2, -2.0, 1.2, 0.4, 269, 16
2023-03-30, 11:35:53.667, 255.19, 15.33, 50.42, 400, 16, 46.52094650, 6.56317949, 10, 0.01, 426.7, 0.1, -2.1, 1.2, 0.5, 295, 16
2023-03-30, 11:35:54.772, 253.83, 15.34, 50.43, 400, 15, 46.52094650, 6.56318378, 10, 0.05, 426.7, 0.1, -2.0, 1.3, 1.0, 287, 16
2023-03-30, 11:35:55.879, 256.06, 15.33, 50.46, 400, 11, 46.52094650, 6.56318665, 10, 0.03, 426.8, 0.2, -1.9, 1.3, 1.0, 269, 16
2023-03-30, 11:35:56.986, 254.70, 15.31, 50.40, 400, 7, 46.52094650, 6.56318855, 10, 0.01, 426.8, 0.1, -1.7, 1.3, 1.5, 272, 16
2023-03-30, 11:35:58.094, 253.34, 15.33, 50.41, 400, 8, 46.52095413, 6.56319380, 10, 0.03, 426.9, 0.1, -2.0, 1.3, 1.7, 279, 16
2023-03-30, 11:35:59.200, 253.34, 15.30, 50.44, 400, 2, 46.52095413, 6.56319809, 10, 0.02, 427.0, 0.1, -2.0, 1.6, 1.2, 261, 16
2023-03-30, 11:36:00.306, 251.98, 15.31, 50.39, 400, 7, 46.52095413, 6.56320286, 10, 0.05, 427.0, 0.0, -2.0, 1.5, 1.6, 260, 16
2023-03-30, 11:36:01.411, 252.85, 15.30, 50.44, 400, 0, 46.52095413, 6.56320286, 10, 0.05, 427.0, 0.2, -1.9, 1.4, 1.4, 285, 16
2023-03-30, 11:36:02.514, 251.49, 15.31, 50.41, 400, 16, 46.52095413, 6.56320286, 10, 0.02, 427.0, 0.1, -1.9, 1.4, 1.0, 291, 16
2023-03-30, 11:36:03.619, 251.49, 15.31, 50.45, 400, 15, 46.52095413, 6.56320286, 10, 0.02, 427.0, 0.0, -1.8, 1.0, 0.7, 314, 16
2023-03-30, 11:36:04.724, 251.49, 15.31, 50.46, 400, 11, 46.52095413, 6.56320477, 9, 0.05, 427.0, 0.1, -2.1, 1.0, 0.9, 350, 16
2023-03-30, 11:36:05.855, 250.13, 15.31, 50.48, 400, 14, 46.52095413, 6.56320477, 9, 0.03, 427.0, 0.1, -1.9, 1.3, 0.9, 290, 16
2023-03-30, 11:36:06.955, 251.00, 15.30, 50.50, 400, 12, 46.52095413, 6.56320477, 10, 0.02, 427.0, 0.2, -1.9, 1.4, 0.9, 269, 16
2023-03-30, 11:36:08.057, 251.00, 15.27, 50.50, 400, 4, 46.52095413, 6.56320477, 10, 0.02, 427.0, -0.1, -1.8, 0.8, 0.5, 276, 16
2023-03-30, 11:36:09.162, 251.00, 15.30, 50.49, 400, 13, 46.52095413, 6.56320477, 9, 0.06, 427.0, 0.1, -2.0, 1.2, 0.3, 289, 16
2023-03-30, 11:36:10.267, 249.64, 15.31, 50.51, 400, 12, 46.52095413, 6.56320715, 9, 0.08, 426.9, 0.1, -1.9, 1.2, 0.3, 350, 16
2023-03-30, 11:36:11.374, 249.64, 15.31, 50.50, 400, 5, 46.52095413, 6.56320715, 9, 0.04, 426.9, 0.2, -1.8, 0.4, 0.2, 337, 16
2023-03-30, 11:36:12.480, 248.28, 15.33, 50.55, 400, 14, 46.52095413, 6.56320715, 9, 0.05, 426.9, 0.2, -2.0, 0.6, 0.4, 0, 16
2023-03-30, 11:36:13.587, 248.28, 15.33, 50.52, 400, 6, 46.52095413, 6.56320715, 9, 0.10, 426.9, 0.1, -1.9, 0.7, 1.2, 358, 16
2023-03-30, 11:36:14.694, 249.15, 15.31, 50.55, 400, 0, 46.52095413, 6.56320715, 9, 0.12, 426.9, 0.1, -1.7, 1.2, 1.5, 349, 16
2023-03-30, 11:36:15.798, 249.15, 15.33, 50.54, 400, 7, 46.52095413, 6.56320715, 9, 0.15, 426.9, 0.1, -1.9, 1.0, 0.9, 335, 16
2023-03-30, 11:36:16.905, 249.15, 15.30, 50.49, 400, 0, 46.52096176, 6.56320810, 9, 0.15, 426.9, 0.1, -1.9, 0.7, 0.8, 269, 16
2023-03-30, 11:36:18.012, 249.15, 15.30, 50.55, 400, 7, 46.52096176, 6.56320810, 10, 0.15, 426.9, 0.1, -2.0, 0.7, 0.7, 259, 16
2023-03-30, 11:36:19.119, 247.79, 15.31, 50.51, 400, 0, 46.52096176, 6.56321001, 9, 0.16, 426.9, 0.2, -1.9, 1.1, 0.7, 243, 16
2023-03-30, 11:36:20.226, 247.79, 15.30, 50.49, 400, 2, 46.52096176, 6.56321001, 9, 0.20, 426.9, 0.0, -1.9, 1.1, 0.6, 235, 16
2023-03-30, 11:36:21.331, 247.79, 15.31, 50.51, 400, 3, 46.52096176, 6.56321192, 9, 0.21, 426.9, 0.2, -2.0, 1.1, 0.6, 264, 16
2023-03-30, 11:36:22.437, 246.43, 15.30, 50.50, 400, 11, 46.52097321, 6.56321192, 9, 0.22, 426.9, 0.2, -2.0, 0.9, 0.9, 265, 16
2023-03-30, 11:36:23.545, 246.43, 15.31, 50.55, 400, 7, 46.52097321, 6.56321335, 9, 0.23, 426.8, 0.0, -1.9, 0.8, 0.9, 269, 16
2023-03-30, 11:36:24.652, 246.43, 15.30, 50.53, 400, 6, 46.52097321, 6.56321335, 9, 0.26, 426.8, 0.2, -2.0, 1.3, 1.0, 276, 16
2023-03-30, 11:36:25.758, 244.58, 15.31, 50.48, 400, 6, 46.52097321, 6.56321812, 9, 0.23, 426.8, 0.2, -1.8, 1.4, 1.3, 282, 16
2023-03-30, 11:36:26.864, 242.73, 15.33, 50.50, 400, 5, 46.52098083, 6.56322002, 9, 0.22, 426.8, 0.1, -1.9, 1.2, 1.3, 278, 16
2023-03-30, 11:36:27.972, 242.73, 15.31, 50.48, 400, 6, 46.52098083, 6.56322098, 10, 0.22, 426.8, 0.1, -1.9, 1.1, 0.7, 305, 16
2023-03-30, 11:36:29.079, 242.73, 15.33, 50.52, 400, 0, 46.52098083, 6.56322336, 10, 0.20, 426.8, -0.0, -2.0, 0.8, 0.6, 253, 16
2023-03-30, 11:36:30.185, 240.50, 15.31, 50.55, 400, 7, 46.52098083, 6.56322336, 9, 0.17, 426.8, 0.2, -1.8, 0.8, 0.8, 265, 16
2023-03-30, 11:36:31.291, 240.50, 15.31, 50.48, 400, 7, 46.52098083, 6.56322336, 9, 0.16, 426.7, -0.0, -1.8, 0.9, 0.7, 245, 16
2023-03-30, 11:36:32.399, 240.50, 15.30, 50.49, 400, 0, 46.52098846, 6.56322336, 9, 0.19, 426.7, 0.1, -1.7, 0.4, 1.5, 269, 16
2023-03-30, 11:36:33.503, 240.50, 15.30, 50.49, 400, 0, 46.52098846, 6.56322527, 9, 0.20, 426.7, 0.1, -2.0, 1.5, 0.9, 277, 16
2023-03-30, 11:36:34.609, 240.50, 15.31, 50.45, 400, 14, 46.52098846, 6.56322527, 9, 0.17, 426.7, 0.1, -1.9, 1.2, 0.1, 269, 16
2023-03-30, 11:36:35.714, 240.50, 15.30, 50.50, 400, 7, 46.52098846, 6.56322527, 9, 0.16, 426.7, 0.1, -1.9, 1.0, 0.4, 305, 16
2023-03-30, 11:36:36.819, 240.50, 15.30, 50.50, 400, 5, 46.52099609, 6.56322527, 9, 0.15, 426.7, 0.2, -1.9, 1.1, 0.3, 269, 16
2023-03-30, 11:36:37.922, 240.50, 15.28, 50.47, 400, 8, 46.52099609, 6.56322622, 10, 0.15, 426.8, 0.1, -1.9, 0.6, 0.5, 192, 16
2023-03-30, 11:36:39.026, 240.50, 15.28, 50.46, 400, 7, 46.52099609, 6.56322622, 10, 0.15, 426.8, 0.1, -1.8, 1.1, 0.5, 230, 16
2023-03-30, 11:36:40.131, 240.50, 15.31, 50.50, 400, 1, 46.52099609, 6.56322622, 10, 0.12, 426.8, 0.1, -2.0, 1.1, 0.9, 262, 16
2023-03-30, 11:36:41.234, 236.91, 15.33, 50.55, 400, 5, 46.52099609, 6.56322861, 10, 0.14, 426.8, 0.1, -1.8, 1.0, 0.6, 258, 16
2023-03-30, 11:36:42.339, 238.27, 15.31, 50.46, 400, 1, 46.52099609, 6.56322861, 10, 0.13, 426.8, 0.1, -1.8, 0.9, 0.8, 296, 16
2023-03-30, 11:36:43.442, 239.63, 15.33, 50.50, 400, 5, 46.52099609, 6.56322861, 10, 0.17, 426.9, 0.1, -1.9, 1.1, 0.7, 327, 16
2023-03-30, 11:36:44.545, 240.50, 15.31, 50.46, 400, 0, 46.52100372, 6.56322861, 10, 0.21, 426.9, 0.2, -1.9, 0.6, 0.4, 0, 16
2023-03-30, 11:36:45.652, 240.50, 15.31, 50.49, 400, 0, 46.52100372, 6.56322861, 10, 0.19, 426.9, 0.1, -1.8, 1.2, 0.3, 350, 16
2023-03-30, 11:36:46.757, 241.86, 15.30, 50.45, 400, 0, 46.52100372, 6.56322622, 9, 0.19, 427.0, 0.2, -1.9, 1.2, 0.4, 10, 16
2023-03-30, 11:36:47.863, 241.86, 15.31, 50.48, 400, 0, 46.52101135, 6.56322622, 10, 0.19, 427.0, 0.1, -1.8, 1.3, 0.2, 337, 16
2023-03-30, 11:36:48.970, 240.99, 15.31, 50.48, 400, 0, 46.52101135, 6.56322527, 10, 0.19, 427.0, 0.2, -1.9, 1.3, 0.6, 344, 16
2023-03-30, 11:36:50.080, 236.53, 15.31, 50.45, 400, 7, 46.52101135, 6.56322527, 10, 0.18, 427.1, 0.1, -1.9, 1.0, 0.8, 320, 16
2023-03-30, 11:36:51.186, 242.35, 15.31, 50.44, 400, 9, 46.52101135, 6.56322527, 10, 0.15, 427.1, 0.2, -1.7, 1.4, 1.6, 321, 16
2023-03-30, 11:36:52.292, 242.35, 15.28, 50.45, 400, 7, 46.52101135, 6.56322336, 10, 0.15, 427.1, 0.1, -1.8, 0.8, 1.7, 301, 16
2023-03-30, 11:36:53.398, 242.35, 15.28, 50.45, 400, 6, 46.52101135, 6.56322336, 10, 0.14, 427.1, 0.2, -1.9, 359.6, 1.4, 299, 16
2023-03-30, 11:36:54.532, 242.35, 15.28, 50.47, 400, 0, 46.52101898, 6.56322336, 9, 0.15, 427.2, 0.0, -1.9, 1.0, 1.4, 297, 16
2023-03-30, 11:36:55.635, 240.99, 15.30, 50.41, 400, 1, 46.52101898, 6.56322098, 8, 0.15, 427.2, 0.1, -1.7, 0.6, 1.2, 291, 16
2023-03-30, 11:36:56.739, 230.60, 15.27, 50.42, 400, 9, 46.52101898, 6.56322098, 9, 0.14, 427.2, 0.2, -2.0, 0.5, 1.1, 281, 16
2023-03-30, 11:36:57.842, 216.13, 15.28, 50.45, 400, 0, 46.52101898, 6.56322098, 8, 0.15, 427.2, 0.1, -1.7, 0.3, 1.0, 266, 16
2023-03-30, 11:36:58.948, 227.50, 15.30, 50.42, 400, 0, 46.52101898, 6.56322098, 9, 0.15, 427.3, 0.1, -1.8, 1.4, 0.8, 261, 16
2023-03-30, 11:37:00.055, 222.06, 15.27, 50.43, 400, 9, 46.52103043, 6.56322098, 10, 0.16, 427.3, 0.0, -1.7, 1.0, 0.6, 264, 16
2023-03-30, 11:37:01.160, 229.73, 15.28, 50.39, 400, 10, 46.52103043, 6.56322098, 9, 0.15, 427.3, -0.1, -2.0, 0.9, 0.4, 278, 16
2023-03-30, 11:37:02.267, 238.76, 15.28, 50.43, 400, 5, 46.52103043, 6.56322336, 9, 0.14, 427.4, 0.1, -1.9, 1.3, 0.3, 317, 16
2023-03-30, 11:37:03.374, 242.84, 15.30, 50.41, 400, 7, 46.52103043, 6.56322336, 9, 0.13, 427.4, 0.1, -1.8, 1.0, 1.0, 273, 16
2023-03-30, 11:37:04.480, 241.97, 15.30, 50.44, 400, 0, 46.52103043, 6.56322527, 9, 0.13, 427.5, 0.1, -1.9, 1.3, 0.6, 320, 16
2023-03-30, 11:37:05.586, 238.87, 15.28, 50.45, 400, 9, 46.52103806, 6.56322861, 9, 0.16, 427.9, 0.2, -1.8, 1.1, 0.7, 355, 16
2023-03-30, 11:37:06.692, 244.69, 15.28, 50.43, 400, 0, 46.52104568, 6.56323147, 9, 0.15, 428.1, 0.2, -1.8, 1.5, 0.7, 0, 16
2023-03-30, 11:37:07.800, 261.12, 15.27, 50.46, 400, 0, 46.52104568, 6.56323338, 9, 0.15, 428.2, 0.2, -1.9, 1.3, 0.5, 354, 16
2023-03-30, 11:37:08.907, 245.18, 15.31, 50.50, 400, 3, 46.52104568, 6.56323528, 9, 0.16, 428.3, 0.1, -1.9, 1.6, 0.3, 10, 16
2023-03-30, 11:37:10.013, 251.60, 15.28, 50.47, 400, 3, 46.52104568, 6.56323528, 10, 0.15, 428.4, 0.0, -1.8, 0.9, 0.3, 119, 16
2023-03-30, 11:37:11.119, 229.95, 15.33, 50.49, 400, 0, 46.52104568, 6.56323624, 9, 0.15, 428.6, 0.2, -1.8, 1.3, 0.1, 89, 16
2023-03-30, 11:37:12.223, 243.33, 15.31, 50.50, 400, 0, 46.52104568, 6.56324387, 9, 0.17, 428.8, 0.1, -1.8, 0.9, 0.2, 134, 16
2023-03-30, 11:37:13.326, 247.41, 15.31, 50.48, 400, 8, 46.52105331, 6.56324387, 9, 0.18, 429.2, 0.1, -2.1, 1.4, 0.5, 181, 16
2023-03-30, 11:37:14.430, 248.39, 15.30, 50.50, 400, 2, 46.52105331, 6.56324387, 9, 0.16, 429.7, 0.0, -1.8, 0.8, 0.3, 249, 16
2023-03-30, 11:37:15.532, 251.60, 15.30, 50.53, 400, 4, 46.52106094, 6.56324148, 9, 0.16, 430.2, 0.2, -2.1, 1.2, 0.5, 247, 16
2023-03-30, 11:37:16.640, 250.73, 15.33, 50.53, 400, 5, 46.52106094, 6.56323957, 9, 0.15, 431.4, 0.0, -1.8, 1.2, 0.3, 249, 16
2023-03-30, 11:37:17.743, 249.86, 15.33, 50.54, 400, 2, 46.52106857, 6.56323624, 9, 0.13, 432.0, 0.0, -1.9, 0.9, 0.1, 269, 16
2023-03-30, 11:37:18.846, 251.22, 15.31, 50.54, 400, 0, 46.52106857, 6.56323862, 9, 0.13, 432.4, 0.1, -1.9, 0.9, 0.1, 289, 16
2023-03-30, 11:37:19.950, 250.35, 15.33, 50.57, 400, 2, 46.52106857, 6.56323862, 9, 0.13, 432.6, 0.1, -1.8, 0.9, 0.0, 89, 16
2023-03-30, 11:37:21.058, 251.71, 15.30, 50.54, 400, 1, 46.52106857, 6.56323624, 10, 0.12, 432.9, 0.1, -1.8, 1.3, 0.1, 114, 16
2023-03-30, 11:37:22.165, 254.43, 15.33, 50.50, 400, 11, 46.52107620, 6.56323624, 9, 0.12, 433.5, 0.0, -1.9, 0.9, 0.0, 89, 16
2023-03-30, 11:37:23.271, 252.20, 15.30, 50.51, 400, 3, 46.52107620, 6.56323624, 9, 0.15, 434.0, 0.1, -1.7, 1.3, 0.3, 269, 16
2023-03-30, 11:37:24.378, 252.20, 15.30, 50.56, 400, 0, 46.52108383, 6.56323624, 9, 0.14, 434.5, 0.1, -1.8, 0.9, 0.5, 256, 16
2023-03-30, 11:37:25.484, 249.97, 15.33, 50.48, 400, 2, 46.52108383, 6.56323624, 9, 0.14, 434.7, 0.1, -2.0, 1.1, 0.6, 264, 16
2023-03-30, 11:37:26.591, 241.81, 15.31, 50.54, 400, 4, 46.52108383, 6.56323624, 9, 0.15, 435.4, 0.1, -1.9, 1.4, 0.6, 253, 16
2023-03-30, 11:37:27.697, 226.47, 15.33, 50.52, 400, 0, 46.52109528, 6.56323528, 9, 0.14, 435.7, -0.1, -1.9, 1.5, 0.9, 262, 16
2023-03-30, 11:38:16.966, 325.78, 15.40, 50.75, 400, 2, 46.52112579, 6.56324482, 9, 0.04, 442.8, -0.1, -0.9, 2.3, 1.4, 288, 16
2023-03-30, 11:38:18.076, 330.45, 15.38, 50.77, 400, 0, 46.52112579, 6.56324482, 10, 0.04, 442.9, -0.1, -0.9, 2.1, 1.7, 281, 16
2023-03-30, 11:38:19.181, 328.59, 15.35, 50.69, 400, 5, 46.52112579, 6.56324482, 9, 0.01, 442.9, -0.1, -0.9, 1.9, 1.3, 290, 16
2023-03-30, 11:38:20.287, 322.16, 15.38, 50.70, 400, 0, 46.52112579, 6.56324482, 9, 0.04, 442.9, -0.1, -0.9, 2.1, 1.1, 280, 16
2023-03-30, 11:38:21.394, 329.86, 15.38, 50.69, 400, 0, 46.52112579, 6.56324482, 10, 0.02, 442.9, -0.3, -0.6, 2.3, 0.7, 285, 16
2023-03-30, 11:38:22.501, 331.56, 15.37, 50.70, 400, 5, 46.52112579, 6.56324482, 10, 0.04, 442.9, -0.1, -0.9, 2.1, 0.7, 275, 16
2023-03-30, 11:38:23.607, 333.25, 15.37, 50.66, 400, 0, 46.52112579, 6.56324482, 10, 0.03, 442.9, -0.1, -0.8, 1.8, 0.9, 265, 16
2023-03-30, 11:38:24.714, 333.03, 15.38, 50.63, 400, 1, 46.52112579, 6.56324482, 10, 0.03, 442.9, -0.2, -0.8, 2.0, 0.5, 269, 16
2023-03-30, 11:38:25.820, 334.14, 15.38, 50.66, 400, 0, 46.52112579, 6.56324482, 10, 0.03, 442.9, -0.1, -0.8, 2.0, 0.5, 261, 16
2023-03-30, 11:38:26.927, 335.54, 15.37, 50.66, 400, 0, 46.52112579, 6.56324482, 10, 0.02, 442.9, -0.1, -0.7, 1.9, 0.3, 269, 16
2023-03-30, 11:38:28.034, 335.02, 15.37, 50.65, 400, 1, 46.52112579, 6.56324482, 10, 0.02, 442.9, -0.2, -0.9, 2.2, 0.0, 269, 16
2023-03-30, 11:38:29.141, 336.13, 15.35, 50.62, 400, 3, 46.52111816, 6.56324673, 10, 0.04, 443.0, -0.0, -0.8, 2.0, 0.3, 281, 16
2023-03-30, 11:38:30.275, 337.24, 15.35, 50.59, 400, 4, 46.52111816, 6.56324863, 9, 0.02, 443.2, -0.2, -0.9, 2.0, 0.4, 298, 16
2023-03-30, 11:38:31.378, 339.16, 15.38, 50.59, 400, 17, 46.52110291, 6.56324863, 10, 0.05, 443.2, -0.1, -0.9, 2.3, 0.4, 269, 16
2023-03-30, 11:38:32.483, 340.27, 15.40, 50.63, 400, 11, 46.52110291, 6.56324673, 9, 0.05, 443.0, -0.1, -0.8, 1.7, 0.5, 263, 16
2023-03-30, 11:38:33.588, 342.20, 15.37, 50.60, 400, 3, 46.52110291, 6.56324673, 9, 0.09, 443.0, -0.0, -0.9, 2.2, 0.5, 269, 16
2023-03-30, 11:38:34.694, 341.97, 15.37, 50.61, 400, 0, 46.52110291, 6.56324673, 9, 0.08, 443.0, -0.3, -0.9, 2.2, 0.7, 291, 16
2023-03-30, 11:38:35.800, 343.90, 15.38, 50.60, 400, 0, 46.52109528, 6.56324482, 9, 0.06, 443.0, -0.2, -0.8, 2.5, 0.7, 291, 16
2023-03-30, 11:38:36.904, 344.48, 15.38, 50.58, 400, 13, 46.52109528, 6.56324482, 9, 0.07, 443.0, -0.1, -0.8, 2.0, 0.7, 285, 16
2023-03-30, 11:38:38.009, 345.59, 15.37, 50.59, 400, 6, 46.52110291, 6.56324482, 9, 0.06, 443.1, -0.2, -0.9, 2.0, 0.6, 292, 16
2023-03-30, 11:38:39.113, 346.70, 15.38, 50.56, 400, 9, 46.52110291, 6.56324482, 9, 0.04, 443.2, -0.2, -0.8, 2.5, 0.7, 287, 16
2023-03-30, 11:38:40.218, 347.29, 15.37, 50.56, 400, 18, 46.52110291, 6.56324148, 9, 0.06, 443.1, -0.1, -0.9, 1.8, 0.5, 286, 16
2023-03-30, 11:38:41.321, 348.40, 15.37, 50.57, 400, 8, 46.52110291, 6.56324387, 9, 0.01, 443.0, -0.2, -0.8, 2.6, 0.5, 269, 16
2023-03-30, 11:38:42.424, 350.33, 15.40, 50.54, 400, 3, 46.52110291, 6.56324148, 9, 0.02, 443.0, -0.2, -0.7, 1.9, 0.6, 269, 16
2023-03-30, 11:38:43.529, 350.10, 15.38, 50.53, 400, 0, 46.52110291, 6.56324148, 9, 0.04, 443.0, -0.1, -0.9, 2.0, 0.6, 275, 16
2023-03-30, 11:38:44.635, 352.02, 15.37, 50.56, 400, 5, 46.52111053, 6.56324482, 9, 0.06, 443.1, -0.2, -0.8, 2.2, 0.7, 285, 16
2023-03-30, 11:38:45.741, 353.95, 15.40, 50.55, 400, 12, 46.52111053, 6.56324148, 9, 0.02, 443.1, -0.1, -0.9, 2.0, 0.6, 298, 16
2023-03-30, 11:38:46.848, 354.54, 15.40, 50.58, 400, 13, 46.52111053, 6.56323957, 9, 0.01, 443.1, -0.2, -0.8, 2.2, 0.5, 306, 16
2023-03-30, 11:38:47.955, 356.46, 15.40, 50.55, 400, 0, 46.52111053, 6.56323957, 9, 0.02, 442.8, -0.2, -0.8, 2.2, 0.6, 22, 16
2023-03-30, 11:38:49.063, 356.23, 15.40, 50.58, 400, 0, 46.52111053, 6.56323957, 9, 0.02, 442.8, -0.1, -0.8, 2.5, 1.2, 44, 16
2023-03-30, 11:38:50.170, 358.16, 15.38, 50.60, 400, 5, 46.52111053, 6.56323147, 9, 0.09, 442.7, -0.1, -0.8, 1.8, 1.9, 36, 16
2023-03-30, 11:38:51.277, 358.75, 15.37, 50.55, 400, 7, 46.52110291, 6.56323051, 9, 0.09, 442.6, -0.2, -0.7, 1.7, 1.6, 36, 16
2023-03-30, 11:38:52.383, 360.67, 15.38, 50.53, 400, 9, 46.52110291, 6.56322622, 9, 0.11, 442.5, -0.1, -0.9, 2.0, 0.9, 350, 16
2023-03-30, 11:38:53.492, 362.60, 15.37, 50.55, 400, 2, 46.52110291, 6.56322622, 9, 0.08, 442.4, -0.2, -0.8, 1.9, 0.9, 340, 16
2023-03-30, 11:38:54.596, 363.19, 15.37, 50.57, 400, 0, 46.52110291, 6.56323147, 9, 0.06, 441.4, -0.1, -0.8, 1.7, 0.9, 343, 16
2023-03-30, 11:38:55.703, 365.11, 15.35, 50.56, 400, 0, 46.52110291, 6.56323051, 9, 0.08, 441.4, -0.3, -1.0, 2.4, 1.3, 352, 16
2023-03-30, 11:38:56.810, 366.51, 15.35, 50.53, 400, 0, 46.52110291, 6.56323051, 9, 0.08, 441.4, -0.1, -1.0, 2.3, 1.9, 357, 16
2023-03-30, 11:38:57.919, 367.10, 15.35, 50.51, 400, 0, 46.52109528, 6.56323051, 9, 0.07, 441.4, -0.2, -1.1, 2.0, 1.5, 30, 16
2023-03-30, 11:38:59.025, 369.03, 15.34, 50.45, 400, 0, 46.52109528, 6.56323051, 9, 0.06, 441.3, -0.1, -0.9, 2.2, 1.1, 19, 16
2023-03-30, 11:39:00.133, 369.62, 15.37, 50.46, 400, 0, 46.52110291, 6.56322622, 9, 0.07, 441.2, -0.1, -1.0, 1.6, 1.4, 15, 16
2023-03-30, 11:39:01.238, 371.02, 15.35, 50.44, 400, 0, 46.52110291, 6.56322336, 9, 0.11, 441.1, -0.2, -1.0, 1.8, 1.0, 17, 16
2023-03-30, 11:39:02.346, 372.94, 15.34, 50.44, 400, 0, 46.52110291, 6.56322527, 9, 0.08, 441.1, -0.1, -1.0, 2.3, 1.1, 30, 16
2023-03-30, 11:39:03.452, 374.35, 15.35, 50.44, 400, 0, 46.52110291, 6.56322527, 9, 0.06, 441.0, -0.1, -1.0, 2.2, 0.6, 350, 16
2023-03-30, 11:39:04.558, 374.12, 15.37, 50.40, 400, 2, 46.52110291, 6.56322098, 9, 0.08, 440.9, -0.2, -0.9, 1.6, 1.0, 14, 16
2023-03-30, 11:39:05.664, 374.94, 15.38, 50.39, 400, 7, 46.52110291, 6.56322098, 9, 0.09, 441.0, -0.1, -0.9, 2.4, 0.9, 0, 16
2023-03-30, 11:39:06.771, 366.78, 15.37, 50.38, 400, 17, 46.52110291, 6.56322098, 9, 0.08, 440.8, -0.1, -0.8, 2.2, 0.8, 352, 16
2023-03-30, 11:39:07.878, 355.51, 15.37, 50.40, 400, 14, 46.52109528, 6.56322098, 9, 0.06, 440.7, -0.1, -1.0, 1.6, 0.6, 317, 16
